,Municipality,Location,Latitude,Longitude,Count
1,SOOKE,MURRAY RD & OTTER POINT RD & SOOKE RD & WEST COAST RD,48.377315,-123.723832,1.0
2,SOOKE,SOOKE RD & TOWNSEND RD,48.378083,-123.722957,2.0
3,SOOKE,CHURCH RD & GOODMERE RD & SOOKE RD,48.378968,-123.718167,1.0
4,SOOKE,BELVISTA PL & PHILLIPS RD & SOOKE RD & TURNING LANE,48.38409,-123.705264,1.0
5,SOOKE,THROUP RD,48.385406,-123.716136,1.0
6,SOOKE,LAZZAR RD & SOOKE RD,48.387714,-123.696838,1.0
7,METCHOSIN,KANGAROO RD & SOOKE RD,48.392849,-123.598786,1.0
8,SOOKE,SOOKE RIVER RD & UNSIGNED,48.406015,-123.704052,1.0
9,VICTORIA,COOK ST & DALLAS RD,48.407874,-123.357899,1.0
10,VICTORIA,TRANS-CANADA HWY,48.410275,-123.368837,1.0
11,VICTORIA,DALLAS RD & MENZIES ST,48.411995,-123.377593,1.0
12,VICTORIA,GOVERNMENT ST & NIAGARA ST,48.412104,-123.371989,1.0
13,VICTORIA,COOK ST & OLIPHANT AVE,48.413794,-123.356846,1.0
14,VICTORIA,COOK ST & MCKENZIE ST,48.415029,-123.356293,1.0
15,VICTORIA,FAIRFIELD RD & MOSS ST,48.415256,-123.348803,2.0
16,VICTORIA,DALLAS RD & MONTREAL ST,48.415902,-123.384724,1.0
17,VICTORIA,CROFT ST & SIMCOE ST,48.416138,-123.375567,1.0
18,VICTORIA,COOK ST & SOUTHGATE ST,48.416319,-123.355785,1.0
19,VICTORIA,KIPLING ST & RICHARDSON ST,48.416641,-123.344018,1.0
20,VICTORIA,SOUTHGATE ST & VANCOUVER ST,48.416675,-123.359293,1.0
21,VICTORIA,MENZIES ST & MICHIGAN ST,48.416983,-123.373018,1.0
22,VICTORIA,MICHIGAN ST & YOUNG ST,48.417226,-123.36826,1.0
23,VICTORIA,ARBUTUS WAY & QUADRA ST & SOUTHGATE ST,48.417569,-123.362386,1.0
24,VICTORIA,COOK ST & FAIRFIELD RD,48.418012,-123.35536,8.0
25,VICTORIA,MENZIES ST & SUPERIOR ST,48.418075,-123.372412,3.0
26,VICTORIA,GOVERNMENT ST & SUPERIOR ST,48.41827,-123.368836,1.0
27,VICTORIA,BLANSHARD ST & DOUGLAS ST & SOUTHGATE ST & SUPERIOR ST,48.418505,-123.365616,2.0
28,VICTORIA,COOK ST & RICHARDSON ST,48.419636,-123.354966,1.0
29,VICTORIA,FAIRFIELD RD & QUADRA ST,48.419764,-123.360459,1.0
30,VICTORIA,JOAN CRES & ROCKLAND AVE,48.419847,-123.342502,1.0
31,VICTORIA,ROCKLAND AVE & ST CHARLES ST,48.419957,-123.338637,1.0
32,COLWOOD,LAGOON RD & METCHOSIN RD,48.419964,-123.48534,1.0
33,VICTORIA,MENZIES ST & QUEBEC ST,48.41999,-123.371354,1.0
34,VICTORIA,BELLEVILLE ST & DOUGLAS ST,48.420228,-123.366329,1.0
35,VICTORIA,BLANSHARD ST & HUMBOLDT ST,48.420527,-123.363847,3.0
36,VICTORIA,BELLEVILLE ST & GOVERNMENT ST,48.42062,-123.368935,4.0
37,OAK BAY,BEACH DR & MARGATE AVE,48.420644,-123.300155,1.0
38,VICTORIA,BELLEVILLE ST & MENZIES ST,48.420752,-123.370924,4.0
39,VICTORIA,BLANSHARD ST & FAIRFIELD RD,48.421126,-123.363082,1.0
40,VICTORIA,HUMBOLDT ST & PENWELL ST,48.4215,-123.365236,2.0
41,VICTORIA,BLANSHARD ST & COURTNEY ST,48.422674,-123.3629,3.0
42,LANGFORD,HAPPY VALLEY RD & TURNSTONE DR,48.4227,-123.532927,1.0
43,VICTORIA,GOVERNMENT ST & HUMBOLDT ST & WHARF ST,48.422922,-123.368301,1.0
44,VICTORIA,FORT ST & LINDEN AVE,48.423035,-123.35062,1.0
45,VICTORIA,COURTNEY ST & DOUGLAS ST,48.423141,-123.365744,1.0
46,VICTORIA,COOK ST & FORT ST,48.423403,-123.354054,4.0
47,VICTORIA,MEARES ST & QUADRA ST,48.423518,-123.359846,1.0
48,VICTORIA,FERNWOOD RD & FORT ST,48.423575,-123.345615,1.0
49,VICTORIA,FORT ST & VANCOUVER ST,48.423726,-123.356896,1.0
50,VICTORIA,BROUGHTON ST & DOUGLAS ST,48.423873,-123.365536,2.0
51,VICTORIA,FORT ST & QUADRA ST,48.424014,-123.359717,2.0
52,VICTORIA,BROUGHTON ST & GORDON ST,48.424119,-123.367213,1.0
53,OAK BAY,BEACH DR & GOODWIN ST & WINDSOR RD,48.424131,-123.305602,2.0
54,OAK BAY,BRIGHTON AVE & VICTORIA AVE,48.424181,-123.318597,1.0
55,VICTORIA,BLANSHARD ST & FORT ST,48.424322,-123.362485,1.0
56,VICTORIA,VANCOUVER ST & VIEW ST,48.424509,-123.35674,1.0
57,VICTORIA,CAMOSUN ST & YATES ST,48.424575,-123.347469,1.0
58,VICTORIA,FORT ST & STANLEY AVE,48.424624,-123.342492,1.0
59,VICTORIA,DOUGLAS ST & FORT ST,48.424652,-123.365333,3.0
60,VICTORIA,BROAD ST & FORT ST,48.424774,-123.366561,1.0
61,VICTORIA,QUADRA ST & VIEW ST,48.424824,-123.359509,4.0
62,VICTORIA,ELFORD ST & FORT ST,48.425062,-123.341186,1.0
63,VICTORIA,COOK ST & YATES ST,48.42507,-123.35365,5.0
64,VICTORIA,BLANSHARD ST & VIEW ST,48.425122,-123.362265,3.0
65,VICTORIA,FORT ST & STADACONA AVE,48.425398,-123.339957,1.0
66,VICTORIA,DOUGLAS ST & VIEW ST,48.425439,-123.36508,3.0
67,VICTORIA,BROAD ST & VIEW ST,48.425577,-123.366473,1.0
68,VICTORIA,CHAMBERS ST & JOHNSON ST,48.425669,-123.350719,1.0
69,VICTORIA,QUADRA ST & YATES ST,48.425671,-123.359276,4.0
70,VICTORIA,BASTION SQ & WHARF ST,48.425889,-123.369941,1.0
71,VICTORIA,COOK ST & JOHNSON ST,48.425951,-123.353452,5.0
72,VICTORIA,BLANSHARD ST & YATES ST,48.425968,-123.362066,6.0
73,VICTORIA,BELMONT AVE & FORT ST,48.426082,-123.338043,2.0
74,VICTORIA,DOUGLAS ST & YATES ST,48.426281,-123.364872,5.0
75,OAK BAY,OAK BAY AVE & ST PATRICK ST,48.426407,-123.311643,1.0
76,VICTORIA,BROAD ST & YATES ST,48.426427,-123.366267,1.0
77,VICTORIA,OAK BAY AVE & RICHMOND AVE,48.426439,-123.330228,5.0
78,OAK BAY,FOUL BAY RD & OAK BAY AVE,48.426444,-123.322724,4.0
80,VICTORIA,CHAMBERLAIN ST & OAK BAY AVE,48.426447,-123.327053,1.0
81,VICTORIA,OAK BAY AVE,48.426447,-123.327872,1.0
82,OAK BAY,MONTEREY AVE & OAK BAY AVE,48.426471,-123.314105,1.0
83,VICTORIA,BELCHER AVE & OAK BAY AVE,48.426477,-123.332947,1.0
84,OAK BAY,MITCHELL ST & OAK BAY AVE,48.42649,-123.320713,1.0
85,OAK BAY,HAMPSHIRE RD & OAK BAY AVE,48.426496,-123.315884,1.0
86,OAK BAY,OAK BAY AVE & WILMOT PL,48.426512,-123.316855,1.0
87,VICTORIA,JOHNSON ST & QUADRA ST,48.426563,-123.359065,2.0
88,VICTORIA,GOVERNMENT ST & YATES ST,48.426579,-123.3675,1.0
89,VICTORIA,COMMERCIAL ALLEY & YATES ST,48.426787,-123.369415,1.0
90,VICTORIA,FERNWOOD RD & PANDORA AVE,48.426835,-123.345348,2.0
91,VICTORIA,BLANSHARD ST & JOHNSON ST,48.426853,-123.361838,2.0
92,VICTORIA,WHARF ST & YATES ST & UNSIGNED,48.426943,-123.37036,3.0
93,VICTORIA,CHAMBERS ST & PANDORA AVE,48.42702,-123.350404,1.0
94,VICTORIA,COOK ST & PANDORA AVE,48.427148,-123.353273,3.0
95,VICTORIA,DOUGLAS ST & JOHNSON ST,48.427177,-123.36468,6.0
96,VICTORIA,PANDORA AVE & VANCOUVER ST,48.427203,-123.356146,1.0
97,ESQUIMALT,LAMPSON ST & LYALL ST,48.427249,-123.407605,1.0
98,VICTORIA,BROAD ST & JOHNSON ST,48.427356,-123.366034,1.0
99,VICTORIA,PANDORA AVE & QUADRA ST,48.42746,-123.358982,3.0
100,VICTORIA,GOVERNMENT ST & JOHNSON ST,48.4275,-123.367259,3.0
101,ESQUIMALT,DUNSMUIR RD & MACAULAY ST,48.427604,-123.404083,1.0
102,VICTORIA,HARBOUR RD,48.427618,-123.374322,1.0
103,VICTORIA,BLANSHARD ST & PANDORA AVE,48.427723,-123.361624,4.0
104,VICTORIA,DOUGLAS ST & PANDORA AVE,48.428037,-123.364472,8.0
105,VICTORIA,COOK ST & MASON ST,48.428135,-123.353155,1.0
106,VICTORIA,JOHNSON ST & PANDORA AVE & WHARF ST,48.428156,-123.371068,2.0
107,VICTORIA,MASON ST & VANCOUVER ST,48.428327,-123.356056,1.0
108,VICTORIA,BELCHER AVE & FORT ST & LEIGHTON RD,48.428402,-123.332951,1.0
109,OAK BAY,FOUL BAY RD & LEIGHTON RD,48.428416,-123.32264,2.0
111,VICTORIA,ESQUIMALT RD & TYEE RD,48.428444,-123.377448,1.0
112,VICTORIA,PANDORA AVE & STORE ST & WHARF ST,48.428478,-123.369672,2.0
113,VICTORIA,FERNWOOD RD & GRANT ST,48.42866,-123.345292,1.0
114,VICTORIA,COOK ST & GRANT ST,48.429075,-123.353035,2.0
115,ESQUIMALT,ESQUIMALT RD & MACAULAY ST,48.42913,-123.403612,1.0
116,VICTORIA,BLANSHARD ST & FISGARD ST,48.429324,-123.36188,1.0
117,VICTORIA,DOUGLAS ST & FISGARD ST,48.429408,-123.364461,2.0
118,VICTORIA,COOK ST & NORTH PARK ST,48.429545,-123.352968,1.0
119,VICTORIA,FORT ST & RICHMOND AVE & RICHMOND RD,48.429558,-123.330162,1.0
120,ESQUIMALT,PARK PL,48.429582,-123.414807,1.0
121,ESQUIMALT,ESQUIMALT RD & LAMPSON ST,48.429589,-123.406854,3.0
122,VICTORIA,STORE ST & SWIFT ST,48.429636,-123.369637,1.0
123,VICTORIA,NORTH PARK ST & VANCOUVER ST,48.429721,-123.35587,1.0
124,VICTORIA,NORTH PARK ST & QUADRA ST,48.429887,-123.358747,1.0
125,ESQUIMALT,ADMIRALS RD & ESQUIMALT RD,48.429894,-123.416958,3.0
126,ESQUIMALT,COMERFORD ST & ESQUIMALT RD & GRENVILLE AVE,48.430003,-123.415714,1.0
127,VICTORIA,BLANSHARD ST & NORTH PARK ST,48.430083,-123.361702,1.0
128,ESQUIMALT,ESQUIMALT RD & FRASER ST,48.430142,-123.412444,2.0
129,VICTORIA,BLANSHARD ST & HERALD ST & NORTH PARK ST,48.430168,-123.361802,1.0
130,VICTORIA,DOUGLAS ST & HERALD ST,48.430237,-123.364493,2.0
131,VICTORIA,CALEDONIA AVE & CHAMBERS ST,48.430291,-123.349937,1.0
132,VICTORIA,CATHERINE ST & ESQUIMALT RD,48.430402,-123.384722,1.0
133,VICTORIA,ESQUIMALT RD & MARY ST,48.430409,-123.385948,1.0
134,OAK BAY,BEE ST & GOLDSMITH ST,48.430438,-123.321344,2.0
135,VICTORIA,FERNWOOD RD & GLADSTONE AVE,48.430471,-123.345139,2.0
136,VICTORIA,CALEDONIA AVE & COOK ST,48.430475,-123.352858,1.0
137,ESQUIMALT,ESQUIMALT RD & HEAD ST,48.430592,-123.400613,4.0
138,VICTORIA,CALEDONIA AVE & VANCOUVER ST,48.430621,-123.355741,1.0
139,LANGFORD,LUXTON RD & SOOKE RD,48.430679,-123.53465,2.0
140,VICTORIA,CALEDONIA AVE & QUADRA ST,48.430782,-123.358624,3.0
141,VICTORIA,ESQUIMALT RD & MAITLAND ST,48.430797,-123.390427,1.0
142,VICTORIA,BLANSHARD ST & CALEDONIA AVE,48.431012,-123.361692,1.0
143,VICTORIA,CHATHAM ST & GOVERNMENT ST,48.431051,-123.367137,2.0
144,VICTORIA,CALEDONIA AVE & CHATHAM ST & DOUGLAS ST,48.431099,-123.364513,1.0
145,VICTORIA,BAY ST,48.431655,-123.383824,1.0
146,ESQUIMALT,DOMINION RD & ESQUIMALT RD,48.431782,-123.39429,1.0
148,VICTORIA,COOK ST & PEMBROKE ST,48.43192,-123.352669,1.0
149,VICTORIA,DISCOVERY ST & DOUGLAS ST,48.431939,-123.364563,1.0
150,ESQUIMALT,DUNSMUIR RD & ESQUIMALT RD,48.431974,-123.394846,1.0
151,VICTORIA,PEMBROKE ST & VANCOUVER ST,48.432086,-123.355524,1.0
152,OAK BAY,CADBORO BAY RD & FORT ST & FOUL BAY RD,48.432172,-123.322417,4.0
154,OAK BAY,BEE ST & CADBORO BAY RD & FLORENCE ST,48.432395,-123.32092,2.0
155,OAK BAY,CADBORO BAY RD & EPWORTH ST,48.432538,-123.319626,1.0
156,VICTORIA,GOVERNMENT ST & PEMBROKE ST,48.432722,-123.367198,1.0
157,VICTORIA,DOUGLAS ST & PEMBROKE ST,48.432763,-123.364598,1.0
158,VICTORIA,CATHERINE ST & WILSON ST,48.432869,-123.38475,1.0
159,ESQUIMALT,HEAD ST & OLD ESQUIMALT RD,48.432993,-123.403532,1.0
160,ESQUIMALT,ROCKCREST AVE & ROCKHEIGHTS AVE,48.433007,-123.410915,1.0
161,SAANICH,BAY ST & RICHMOND RD,48.433644,-123.329192,1.0
163,LANGFORD,GALLOPING GOOSE TRAIL & GLEN LAKE RD & PAGE AVE & SOOKE RD & TURNING LANE,48.433674,-123.526165,2.0
164,SAANICH,BAY ST & LEE AVE,48.43376,-123.325479,1.0
165,VICTORIA,BAY ST & TYEE RD,48.433813,-123.380623,2.0
166,COLWOOD,JACKLIN RD & SOOKE RD & TURNING LANE,48.433882,-123.515047,1.0
168,COLWOOD,JACKLIN RD & SOOKE RD,48.433916,-123.515225,2.0
170,VICTORIA,QUADRA ST & QUEENS AVE,48.433923,-123.358198,2.0
171,OAK BAY,BOWKER AVE & CADBORO BAY RD,48.433964,-123.313223,1.0
172,VICTORIA,DOUGLAS ST & QUEENS AVE,48.434152,-123.364603,1.0
173,VICTORIA,BAY ST & BELMONT AVE,48.434242,-123.339716,1.0
174,COLWOOD,RIDLEY DR & SOOKE RD,48.434297,-123.492697,1.0
175,COLWOOD,KELLY RD & SOOKE RD,48.43488,-123.491189,1.0
176,VICTORIA,BAY ST & EMPIRE ST,48.434903,-123.350984,1.0
177,VICTORIA,BAY ST & COOK ST,48.434988,-123.352295,5.0
178,VICTORIA,BAY ST & TURNER ST,48.435064,-123.374528,2.0
179,VICTORIA,BAY ST & VANCOUVER ST,48.435172,-123.3558,2.0
180,SAANICH,ADANAC ST & RICHMOND RD,48.435198,-123.328856,1.0
182,VICTORIA,BAY ST & QUADRA ST,48.4353,-123.358006,4.0
183,COLWOOD,ANKATHEM PL & SUNRIDGE VALLEY DR,48.435337,-123.512973,1.0
184,VICTORIA,BAY ST & WARK ST,48.435386,-123.359483,2.0
185,VICTORIA,BAY ST & BRIDGE ST,48.435432,-123.372648,2.0
186,VICTORIA,BAY ST & DOWLER PL,48.435463,-123.361033,1.0
187,VICTORIA,BAY ST & BLANSHARD ST & TURNING LANE,48.435581,-123.362734,2.0
188,VICTORIA,BAY ST & DOUGLAS ST,48.435715,-123.365452,3.0
189,ESQUIMALT,DEVONSHIRE RD & LAMPSON ST,48.435742,-123.402979,1.0
190,VICTORIA,BAY ST & GOVERNMENT ST,48.435808,-123.367314,3.0
191,VICTORIA,COOK ST & HAULTAIN ST,48.436404,-123.352121,1.0
192,OAK BAY,EASTDOWNE RD & KINROSS AVE,48.436774,-123.316637,1.0
193,COLWOOD,KELLY RD & PICKFORD RD,48.436972,-123.49903,1.0
194,ESQUIMALT,ADMIRALS RD & COLVILLE RD & ACCESS ROAD & TURNING LANE,48.43728,-123.419112,1.0
195,VICTORIA,KINGS RD & QUADRA ST,48.437498,-123.358633,2.0
196,VICTORIA,HILL ST & ROSS LANE,48.437687,-123.364519,1.0
197,OAK BAY,ESTEVAN AVE & HAMIOTA ST & MUSGRAVE ST & THOMPSON AVE,48.437779,-123.30836,1.0
198,LANGFORD,GALLOPING GOOSE TRAIL & KELLY RD & VETERANS MEMORIAL PKY & TURNING LANE,48.438273,-123.504515,1.0
199,VICTORIA,DOUGLAS ST & GORGE RD E & GOVERNMENT ST & HILLSIDE AVE & TURNING LANE,48.438353,-123.367175,4.0
200,LANGFORD,JACKLIN RD & TERLANE AVE & TERLANE PL,48.438569,-123.512666,1.0
201,VICTORIA,HILLSIDE AVE & ROSS LANE,48.43867,-123.365045,1.0
202,VICTORIA,COVENTRY AVE & CRAIGFLOWER RD,48.438907,-123.39138,1.0
203,VICTORIA,DOUGLAS ST & GOVERNMENT ST & MARKET ST,48.439103,-123.367333,1.0
204,VICTORIA,ELLICE ST & ROCK BAY AVE,48.43924,-123.370476,1.0
205,VICTORIA,DOUGLAS ST & GOVERNMENT ST,48.439368,-123.367557,1.0
206,VICTORIA,HILLSIDE AVE & QUADRA ST,48.439434,-123.35918,5.0
207,VICTORIA,GORGE RD E & ROCK BAY AVE,48.439577,-123.370616,2.0
208,VICTORIA,GRAHAM ST & HILLSIDE AVE,48.439773,-123.356518,1.0
209,ESQUIMALT,ARM ST & CRAIGFLOWER RD,48.439803,-123.393999,1.0
211,VICTORIA,HILLSIDE AVE & PRIOR ST,48.43995,-123.355161,1.0
212,VICTORIA,RYAN ST & SHAKESPEARE ST,48.440027,-123.335847,1.0
213,VICTORIA,MARKET ST & WARK ST,48.440093,-123.360846,1.0
214,VICTORIA,BLACKWOOD ST & HILLSIDE AVE,48.440122,-123.353813,2.0
215,LANGFORD,JACKLIN RD & JENKINS AVE & KELLY RD,48.440337,-123.511698,2.0
216,VICTORIA,COOK ST & HILLSIDE AVE,48.440379,-123.351746,1.0
217,VICTORIA,GARBALLY RD & GORGE RD E,48.440479,-123.37286,1.0
218,VICTORIA,BRIDGE ST & GORGE RD E,48.440729,-123.373522,2.0
219,VICTORIA,HIGGINS ST & HILLSIDE AVE,48.440829,-123.349299,4.0
220,OAK BAY,ALLENBY ST & FOUL BAY RD,48.441116,-123.321988,1.0
222,VICTORIA,DUNEDIN ST & GORGE RD E,48.441179,-123.374717,2.0
223,VICTORIA,CEDAR HILL RD & HILLSIDE AVE,48.441291,-123.344259,2.0
224,ESQUIMALT,CRAIGFLOWER RD & LAMPSON ST,48.441373,-123.40107,1.0
225,LANGFORD,GLEN LAKE RD & JENKINS AVE,48.441729,-123.52321,2.0
226,VICTORIA,BURNSIDE RD E & DOUGLAS ST & DUNEDIN ST & TURNING LANE,48.441891,-123.369108,1.0
227,VICTORIA,GORGE RD E & JUTLAND RD & TURNING LANE,48.4419,-123.376606,3.0
228,VICTORIA,BLANSHARD ST & TOPAZ AVE & TURNING LANE,48.441954,-123.364331,2.0
229,COLWOOD,GOLDSTREAM AVE & ISLAND HWY & SOOKE RD & MALL ACCESS & TURNING LANE,48.442157,-123.469617,1.0
230,LANGFORD,LANGFORD PKY & PHIPPS RD,48.442321,-123.504709,4.0
231,VICTORIA,GOSWORTH RD & HILLSIDE AVE,48.442501,-123.341246,1.0
232,LANGFORD,JACKLIN RD & LANGFORD PKY & TURNING LANE,48.442868,-123.5102,2.0
233,COLWOOD,GOLDSTREAM AVE,48.443003,-123.472938,1.0
234,VICTORIA,GORGE RD E & WASHINGTON AVE,48.443087,-123.3819,5.0
235,VICTORIA,CARROLL ST & GORGE RD E,48.443224,-123.383863,1.0
236,VICTORIA,GORGE RD E & IRMA ST,48.443639,-123.388032,1.0
237,LANGFORD,ATTREE AVE & JACKLIN RD,48.443643,-123.509789,1.0
238,VICTORIA,DONCASTER DR & HILLSIDE AVE,48.443696,-123.338235,9.0
239,SAANICH,FORRESTER ST & RICHMOND RD,48.44377,-123.327021,1.0
240,VICTORIA,GORGE RD E,48.443783,-123.389338,1.0
241,SAANICH,GORGE RD E & GORGE RD W & HARRIET RD,48.443908,-123.390479,4.0
243,LANGFORD,LAKEPOINT WAY & LANGFORD LAKE RD & LANGFORD PKY,48.44395,-123.528037,1.0
244,VICTORIA,BURNSIDE RD E & FINLAYSON ST & JUTLAND RD,48.44418,-123.373861,1.0
245,ESQUIMALT,MCNAUGHTON AVE & TILLICUM RD,48.444438,-123.401336,1.0
246,VICTORIA,HILLSIDE AVE & HILLSIDE SHOPPING CTR & SHAKESPEARE ST,48.444698,-123.335733,2.0
247,LANGFORD,DUNFORD AVE & JACKLIN RD & STATION AVE,48.444771,-123.50908,3.0
248,VICTORIA,BURNSIDE RD E & FRANCES AVE,48.444801,-123.375171,1.0
249,ESQUIMALT,TILLICUM RD,48.444902,-123.401081,1.0
250,VICTORIA,DOUGLAS ST & FINLAYSON ST,48.445033,-123.370717,3.0
251,COLWOOD,GALLOPING GOOSE TRAIL & ISLAND HWY & OCEAN BLVD & WALE RD & BUS LANE & TURNING LANE,48.445129,-123.467084,4.0
252,SAANICH,HARRIET RD & OBED AVE,48.445511,-123.388826,1.0
254,VICTORIA,BLANSHARD ST & FINLAYSON ST & TURNING LANE,48.445569,-123.366493,2.0
255,VICTORIA,HILLSIDE AVE & SHELBOURNE ST,48.445684,-123.333295,3.0
256,VICTORIA,ALPHA ST & BURNSIDE RD E,48.445966,-123.377583,2.0
257,VICTORIA,FINLAYSON ST & QUADRA ST,48.446279,-123.361152,2.0
258,SAANICH,GORGE RD W & MILLGROVE ST,48.446581,-123.394871,1.0
259,VICTORIA,COOK ST & LANG ST,48.446941,-123.349571,1.0
260,LANGFORD,GOLDSTREAM AVE & VETERANS MEMORIAL PKY & TURNING LANE,48.447427,-123.495547,4.0
261,VIEW ROYAL,ADMIRALS RD,48.447446,-123.426369,1.0
262,VIEW ROYAL,MIDDLE RD,48.447562,-123.420752,1.0
263,SAANICH,ALBINA ST & GORGE PARK TRAIL & GORGE RD W,48.44769,-123.398776,1.0
264,VICTORIA,COOK ST & FINLAYSON ST,48.447706,-123.349767,1.0
265,SAANICH,GORGE RD W & TILLICUM RD,48.447716,-123.40042,2.0
266,SAANICH,DOUGLAS ST & TOLMIE AVE & TOLMIE LANE & TURNING LANE,48.447741,-123.372381,3.0
268,LANGFORD,JACKLIN RD & ORONO AVE,48.447773,-123.50734,1.0
269,LANGFORD,PEATT RD,48.448106,-123.50139,1.0
270,SAANICH,NORTH DAIRY RD & SHELBOURNE ST,48.448149,-123.333189,1.0
272,SAANICH,HILLSIDE SHOPPING CTR & NORTH DAIRY RD & WORDSWORTH ST,48.448166,-123.335588,2.0
274,SAANICH,DONCASTER DR & NORTH DAIRY RD,48.448276,-123.341636,1.0
276,SAANICH,CEDAR HILL GOLF COURSE TRAIL & CEDAR HILL RD & FINLAYSON ST & NORTH DAIRY RD,48.448343,-123.343944,1.0
278,LANGFORD,BRYN MAUR RD & GOLDSTREAM AVE,48.448551,-123.498431,1.0
279,SAANICH,QUADRA ST & TOLMIE AVE,48.448964,-123.36189,1.0
281,LANGFORD,CLAUDE RD & GOLDSTREAM AVE,48.44899,-123.499377,3.0
282,SAANICH,CLOVERDALE AVE & DOUGLAS ST & KELVIN RD,48.449256,-123.373348,2.0
283,LANGFORD,HOFFMAN AVE & MASSIE DR & VETERANS MEMORIAL PKY,48.449258,-123.495147,1.0
284,LANGFORD,GOLDSTREAM AVE & PEATT RD,48.449358,-123.500636,4.0
285,SAANICH,BURNSIDE RD E & BURNSIDE RD W & HARRIET RD,48.44945,-123.384629,3.0
287,SAANICH,OBED AVE & TILLICUM RD,48.449987,-123.397953,2.0
288,SAANICH,DOUGLAS ST,48.450086,-123.373925,1.0
289,SAANICH,CLOVERDALE AVE & OAK ST,48.450338,-123.371009,1.0
290,LANGFORD,GOLDSTREAM AVE & JACKLIN RD,48.450544,-123.505703,4.0
291,SAANICH,ARDERSIER RD & BURNS AVE,48.450752,-123.376235,1.0
292,LANGFORD,GOLDSTREAM AVE & MATSON RD,48.450941,-123.507176,1.0
293,SAANICH,BLANSHARD ST & CLOVERDALE AVE & TURNING LANE,48.450974,-123.369658,1.0
294,VIEW ROYAL,ADMIRALS RD & CRAIGFLOWER RD & ISLAND HWY,48.451031,-123.42475,1.0
295,SAANICH,CLOVERDALE AVE & SEYMOUR PL,48.451732,-123.368036,1.0
296,SAANICH,ARENA RD & MADDOCK AVE W & TILLICUM RD,48.451857,-123.395831,1.0
297,VIEW ROYAL,ISLAND HWY & WILFERT RD & TURNING LANE,48.451963,-123.463389,1.0
298,SAANICH,BOLESKINE RD & DAVIDSON AVE,48.452336,-123.379036,1.0
299,SAANICH,BOLESKINE RD & TENNYSON AVE,48.452414,-123.378323,1.0
300,LANGFORD,KETTLE CREEK CRES & TRESTLE PL,48.452583,-123.543059,1.0
301,SAANICH,BETHUNE AVE & CLOVERDALE AVE & INVERNESS RD & RUTLEDGE PARK TRAIL,48.45262,-123.366138,1.0
302,SAANICH,BOLESKINE RD & DOUGLAS ST & SAANICH RD & TURNING LANE,48.452759,-123.375427,1.0
303,LANGFORD,BROCK AVE & PEATT RD,48.45293,-123.498477,1.0
304,SAANICH,CALUMET AVE & CLOVERDALE AVE,48.453057,-123.365189,1.0
305,SAANICH,ADMIRALS RD & CRAIGFLOWER PARK TRAIL & GORGE RD W,48.453492,-123.420611,2.0
306,SAANICH,OAK ST & SAANICH RD & UPTOWN BLVD,48.454103,-123.374246,3.0
307,SAANICH,BURNSIDE RD W & TILLICUM RD & TURNING LANE,48.454222,-123.393141,5.0
308,LANGFORD,FLORENCE LAKE RD & MCCALLUM RD,48.454516,-123.507245,1.0
309,SAANICH,SAANICH RD,48.454772,-123.373143,1.0
310,SAANICH,ADMIRALS RD & MURRAY DR,48.454876,-123.418094,1.0
311,SAANICH,DERBY RD & SHELBOURNE ST,48.455072,-123.333062,1.0
312,SAANICH,CEDAR HILL RD & DERBY RD,48.455183,-123.339583,2.0
313,SAANICH,BLANSHARD ST & SAANICH RD & TURNING LANE,48.455214,-123.37208,3.0
314,VIEW ROYAL,HART RD & ISLAND HWY,48.455469,-123.460114,2.0
315,SAANICH,BATTLEFORD AVE & HARRIET RD,48.455603,-123.38099,2.0
316,SAANICH,CLOVERDALE AVE & COOK ST & QUADRA ST,48.455721,-123.35945,1.0
317,LANGFORD,PEATT RD,48.455758,-123.497242,1.0
318,SAANICH,SAANICH RD & VERNON AVE & TURNING LANE,48.455847,-123.37085,1.0
319,VIEW ROYAL,HELMCKEN RD & ISLAND HWY,48.456008,-123.441051,1.0
320,SAANICH,CAREY RD & RAVINE WAY,48.456367,-123.377478,1.0
321,SAANICH,ADMIRALS RD & COWPER ST,48.456377,-123.413453,1.0
322,LANGFORD,MILLSTREAM RD & MILLSTREAM RD OFFRAMP & MILLSTREAM RD ONRAMP & TRANS-CANADA HWY & VETERANS MEMORIAL PKY & VETERANS MEMORIAL PKY OFFRAMP & VETERANS MEMORIAL PKY ONRAMP,48.456857,-123.497195,2.0
323,SAANICH,SAVANNAH AVE & TATTERSALL DR,48.457194,-123.363297,1.0
324,SAANICH,ELLISTON AVE & TATTERSALL DR,48.45736,-123.362059,1.0
325,VIEW ROYAL,HELMCKEN RD & PHEASANT LANE & VIEW ROYAL PK,48.458052,-123.436357,1.0
326,SAANICH,GALLOPING GOOSE TRAIL & TILLICUM RD & TRANS-CANADA HWY & TURNING LANE,48.458097,-123.390399,1.0
327,SAANICH,RAVINE WAY & VERNON AVE,48.458352,-123.375411,1.0
328,SAANICH,PEAR ST & SHELBOURNE ST,48.458486,-123.332973,3.0
329,SAANICH,BURNSIDE RD W & INTERURBAN RD,48.458752,-123.394649,1.0
330,SAANICH,ADMIRALS RD & ADMIRALS RD OFFRAMP & HUNTER ST & MCKENZIE AVE & MCKENZIE AVE OFFRAMP & TRANS-CANADA HWY & TRANS-CANADA HWY ONRAMP & TURNING LANE,48.459684,-123.404755,1.0
331,SAANICH,CAREY RD & HUXLEY ST,48.45997,-123.381502,1.0
332,LANGFORD,MCCALLUM RD & MILLSTREAM RD & TURNING LANE,48.460388,-123.497264,6.0
333,SAANICH,CEDAR HILL CROSS RD & STAMBOUL ST,48.460933,-123.331968,2.0
334,SAANICH,CEDAR HILL CROSS RD & SHELBOURNE ST,48.461268,-123.332958,1.0
335,SAANICH,DUMERESQ ST & RAYMOND ST S,48.461767,-123.390938,1.0
336,SAANICH,BURNSIDE RD W & MCKENZIE AVE,48.462011,-123.402257,1.0
337,SAANICH,CEDAR HILL CROSS RD & CEDAR HILL RD,48.462666,-123.336984,1.0
338,SAANICH,LODGE AVE & PALMER RD & QUADRA ST,48.462793,-123.359734,1.0
339,SAANICH,CHRISTMAS AVE & SHELBOURNE ST,48.462923,-123.332871,2.0
340,SAANICH,COLUMBINE WAY & INTERURBAN RD,48.463795,-123.396735,1.0
341,VIEW ROYAL,HELMCKEN RD & TRANS-CANADA HWY,48.463876,-123.430932,1.0
342,SAANICH,HOBBS ST & MAYNARD ST,48.463914,-123.296436,1.0
343,SAANICH,LYNNHURST LANE & SINCLAIR RD,48.464264,-123.303419,1.0
344,LANGFORD,BELAIR RD & TREANOR AVE & MALL ACCESS,48.464604,-123.49854,1.0
345,LANGFORD,BELLAMY RD & TREANOR AVE,48.46476,-123.494386,1.0
346,SAANICH,MARIGOLD RD & SNOWDROP AVE,48.464782,-123.403476,1.0
347,OAK BAY,MCGILL RD & RING RD,48.464982,-123.315204,1.0
349,SAANICH,GABRIOLA RD & RING RD,48.465853,-123.312082,1.0
350,SAANICH,QUADRA ST & REYNOLDS RD,48.466399,-123.361649,2.0
351,SAANICH,COLQUITZ-CAREY PARK TRAIL & INTERURBAN RD & MARIGOLD RD,48.466783,-123.401489,6.0
352,SAANICH,MCKENZIE AVE ONRAMP & PATRICIA BAY HWY,48.467713,-123.381617,1.0
353,SAANICH,MCKENZIE AVE & PATRICIA BAY HWY,48.467831,-123.381346,1.0
354,SAANICH,DOUGLAS ST & MCKENZIE AVE & MCKENZIE AVE OFFRAMP & MCKENZIE AVE ONRAMP & PATRICIA BAY HWY & PATRICIA BAY HWY ONRAMP & TURNING LANE,48.467881,-123.381515,1.0
355,LANGFORD,BELLAMY RD & GOLDIE AVE,48.468248,-123.492689,1.0
356,SAANICH,GORDON HEAD RD & MCKENZIE AVE & TURNING LANE,48.468569,-123.319482,2.0
357,SAANICH,MCGILL RD & MCKENZIE AVE & TURNING LANE,48.468577,-123.317592,1.0
358,SAANICH,LARCHWOOD DR & MCKENZIE AVE,48.468591,-123.324585,1.0
359,SAANICH,CEDARWOOD ST & MCKENZIE AVE,48.468621,-123.328701,2.0
360,SAANICH,MCKENZIE AVE & SHELBOURNE ST,48.468632,-123.332734,4.0
361,SAANICH,CEDAR HILL RD & MCKENZIE AVE,48.468644,-123.335332,1.0
362,SAANICH,DAFFODIL AVE & MARIGOLD RD,48.469317,-123.398986,1.0
363,SAANICH,MCKENZIE AVE & QUADRA ST,48.470029,-123.364594,7.0
364,SAANICH,BORDEN ST & LOCHSIDE TRAIL & MCKENZIE AVE,48.47043,-123.361205,1.0
365,SAANICH,BLENKINSOP RD & MCKENZIE AVE,48.471918,-123.351156,2.0
366,SAANICH,GRANGE RD & INTERURBAN RD,48.472002,-123.405642,2.0
367,SAANICH,BLAIR AVE & SHELBOURNE ST,48.472922,-123.332611,1.0
368,SAANICH,BAKER ST & CAREY RD,48.474121,-123.397422,1.0
369,SAANICH,GREENLANDS RD & JASON PL,48.475034,-123.306491,1.0
370,SAANICH,FELTHAM RD & SHELBOURNE ST,48.476017,-123.332814,2.0
371,SAANICH,BREMERTON ST,48.476134,-123.394682,1.0
372,SAANICH,BEAM CRES & ERIC RD,48.476587,-123.342088,1.0
373,SAANICH,DOUGLAS ST & GENEVIEVE RD,48.477104,-123.384433,1.0
374,SAANICH,SAN CAPRI TERRACE,48.477816,-123.319845,1.0
375,SAANICH,WILKINSON RD,48.478939,-123.410395,1.0
376,SAANICH,GLANFORD AVE & LEASIDE AVE,48.479392,-123.391504,1.0
377,SAANICH,LILY AVE & QUADRA ST,48.479748,-123.377231,1.0
378,SAANICH,SAN JUAN AVE & TYNDALL AVE,48.482917,-123.321723,1.0
379,SAANICH,CEDAR HILL RD,48.483114,-123.339181,1.0
380,SAANICH,KENMORE RD & SHELBOURNE ST,48.484117,-123.336959,2.0
381,SAANICH,PATRICIA BAY HWY & QUADRA ST & QUADRA ST OFFRAMP & QUADRA ST ONRAMP,48.486816,-123.384766,2.0
382,SAANICH,ASH RD & TREMBLAY DR,48.489827,-123.318739,1.0
383,SAANICH,CEDAR HILL RD & CHURCHILL DR & MOUNT DOUGLAS PARK TRAIL & SHELBOURNE ST & TURNING LANE,48.490445,-123.338094,1.0
384,SAANICH,ASH RD & TORQUAY DR,48.490711,-123.322051,1.0
385,SAANICH,THISTLEWOOD DR,48.491416,-123.368463,1.0
386,SAANICH,EMILY CARR DR & FIR TREE GLEN,48.491688,-123.372889,1.0
387,SAANICH,LINDSAY ST & WILKINSON RD,48.491985,-123.400192,1.0
388,SAANICH,GREENLEA DR & VIEWMONT AVE & MALL ACCESS,48.493062,-123.389851,1.0
389,SAANICH,ASH RD & CEDAR HILL RD & CORDOVA BAY RD,48.49489,-123.335455,1.0
390,SAANICH,VIEWMONT AVE & WEST SAANICH RD,48.494953,-123.3887,1.0
391,SAANICH,ELK LAKE DR & WEST SAANICH RD,48.49627,-123.38995,1.0
392,SAANICH,CHATTERTON WAY & ROYAL OAK DR,48.497891,-123.379468,2.0
393,SAANICH,FALAISE CRES & ROYAL OAK DR,48.498075,-123.379947,1.0
394,SAANICH,PATRICIA BAY HWY & ROYAL OAK DR & ROYAL OAK DR OFFRAMP & ROYAL OAK DR ONRAMP,48.498849,-123.385139,1.0
395,SAANICH,ELK LAKE DR & ROYAL OAK DR & TURNING LANE,48.499079,-123.388034,2.0
396,SAANICH,AMBLEWOOD DR & ROYAL OAK DR,48.500157,-123.366679,1.0
397,SAANICH,BLENKINSOP RD & CORDOVA BAY RD & ROYAL OAK DR,48.503718,-123.354252,1.0
398,SAANICH,CORDOVA BAY RD & MYSTY WOODS,48.505349,-123.354398,1.0
399,SAANICH,PROSPECT LAKE RD,48.506459,-123.44626,1.0
400,SAANICH,HALIBURTON RD & WESLEY RD,48.514185,-123.374153,1.0
401,SAANICH,HALIBURTON RD & HIGHGATE RD & ROSE LANE,48.514258,-123.380153,1.0
402,SAANICH,CHERRY TREE BEND & ELK LAKE DR & HALIBURTON RD & PATRICIA BAY HWY & TURNING LANE,48.51428,-123.384319,1.0
403,SAANICH,WEST SAANICH RD,48.515453,-123.418968,1.0
404,HIGHLANDS,CALEB PIKE RD & MILLSTREAM RD & RED CEDAR CRT,48.517535,-123.517908,1.0
405,SAANICH,BEAR HILL RD & BROOKLEIGH RD,48.540675,-123.412205,1.0
406,CENTRAL SAANICH,CLEAR VIEW RD & PATRICIA BAY HWY & TANNER RD & TURNING LANE,48.554292,-123.3928,1.0
407,CENTRAL SAANICH,HAGAN RD & MARCHANT RD,48.572432,-123.458016,2.0
408,CENTRAL SAANICH,WALLACE DR & WEST SAANICH RD,48.575277,-123.44531,3.0
409,CENTRAL SAANICH,WEST SAANICH RD,48.583525,-123.457153,1.0
410,CENTRAL SAANICH,CENTRAL SAANICH RD & MT NEWTON CROSS RD,48.594125,-123.40347,1.0
411,CENTRAL SAANICH,MT NEWTON CROSS RD & PATRICIA BAY HWY & TURNING LANE,48.594147,-123.398198,2.0
412,CENTRAL SAANICH,EAST SAANICH RD & MT NEWTON CROSS RD,48.594182,-123.416924,2.0
413,CENTRAL SAANICH,MT NEWTON CROSS RD & WALLACE DR,48.594657,-123.419416,1.0
414,NORTH SAANICH,MCTAVISH RD & WILLIAMS RD,48.630048,-123.451075,1.0
415,NORTH SAANICH,BRACKMAN WAY & CANORA RD & SUMMERGATE BLVD,48.636576,-123.41751,1.0
417,SIDNEY,FIFTH ST & LOCHSIDE DR & WEILER AVE & PARK ACCESS ROAD,48.641373,-123.400382,1.0
418,SIDNEY,FIFTH ST & OCEAN AVE,48.64448,-123.400295,1.0
419,SIDNEY,BEVAN AVE & FIFTH ST,48.647645,-123.400307,1.0
420,SIDNEY,BEACON AVE & SECOND ST,48.648895,-123.396562,1.0
421,SIDNEY,BEACON AVE & THIRD ST,48.648929,-123.397801,1.0
422,SIDNEY,BEACON AVE & SEVENTH ST,48.648931,-123.40372,2.0
423,SIDNEY,BEACON AVE & RESTHAVEN DR & MALL ACCESS,48.648932,-123.402296,6.0
424,SIDNEY,BEACON AVE & FIFTH ST,48.648936,-123.400314,1.0
425,SIDNEY,JAMES WHITE BLVD & SEVENTH ST,48.6502,-123.40372,1.0
426,SIDNEY,JAMES WHITE BLVD & RESTHAVEN DR,48.650218,-123.402316,1.0
427,SIDNEY,SIDNEY AVE & THIRD ST,48.650221,-123.397793,2.0
428,SIDNEY,FOURTH ST & MT BAKER AVE,48.651193,-123.399051,1.0
429,SIDNEY,FIFTH ST & HENRY AVE,48.653224,-123.400273,1.0
430,MILL BAY,SHAWNIGAN-MILL BAY RD & TRANS-CANADA HWY & TURNING LANE,48.65739,-123.560881,1.0
431,MILL BAY,COBBLE HILL RD & KILMALU RD & TRANS-CANADA HWY & TURNING LANE,48.664925,-123.559363,1.0
432,COWICHAN BAY,KOKSILAH RD & TRANS-CANADA HWY & TURNING LANE,48.729831,-123.640671,1.0
434,DUNCAN,ALLENBY RD & CHASTER RD & TRANS-CANADA HWY & TURNING LANE,48.765207,-123.695947,1.0
435,DUNCAN,ALLENBY RD & BOYS RD,48.767104,-123.706779,1.0
436,DUNCAN,COWICHAN WAY & TRANS-CANADA HWY,48.773516,-123.69881,2.0
437,DUNCAN,CENTRAL RD & COWICHAN WAY,48.773579,-123.7016,1.0
438,DUNCAN,DOBSON RD & TRANS-CANADA HWY,48.775636,-123.698754,1.0
439,DUNCAN,DOBSON RD,48.775643,-123.697698,1.0
440,DUNCAN,TRUNK RD,48.776751,-123.706229,1.0
441,DUNCAN,TRUNK RD & MALL ACCESS,48.776784,-123.700501,2.0
442,DUNCAN,CANADA AVE & GOVERNMENT ST & RIVER RD & TRUNK RD,48.776802,-123.706586,1.0
443,DUNCAN,BRAE RD & TRUNK RD,48.776837,-123.704433,1.0
444,DUNCAN,TRANS-CANADA HWY & TRUNK RD,48.776846,-123.698837,7.0
445,DUNCAN,ST JULIEN ST & TRUNK RD,48.776891,-123.700747,1.0
446,DUNCAN,MARCHMONT RD & MCKINSTRY RD & TRUNK RD,48.77691,-123.695067,1.0
447,DUNCAN,CANADA AVE & STATION ST,48.777687,-123.706899,1.0
448,DUNCAN,JUBILEE ST & KENNETH ST,48.778465,-123.710451,1.0
449,DUNCAN,CANADA AVE & KENNETH ST,48.778506,-123.707189,1.0
450,DUNCAN,CORONATION AVE & TRANS-CANADA HWY,48.778717,-123.698841,1.0
451,DUNCAN,CORONATION AVE & TRUNK RD,48.778717,-123.692183,1.0
452,DUNCAN,CORONATION AVE & FESTUBERT ST,48.778732,-123.702041,1.0
453,DUNCAN,CORONATION AVE & HOWARD AVE,48.778739,-123.694008,1.0
454,DUNCAN,BRAE RD & CORONATION AVE,48.778751,-123.704656,1.0
455,DUNCAN,INGRAM ST & JUBILEE ST,48.779254,-123.710473,1.0
456,DUNCAN,CANADA AVE & INGRAM ST & QUEENS RD,48.779272,-123.707444,1.0
457,DUNCAN,DUNCAN ST & QUEENS RD,48.779361,-123.706804,1.0
458,DUNCAN,LAKES RD & TRUNK RD & TZOUHALEM RD,48.779866,-123.684958,2.0
459,DUNCAN,ALEXANDER ST & TRANS-CANADA HWY & YORK RD,48.78125,-123.698856,2.0
460,DUNCAN,CANADA AVE & JAMES ST,48.78205,-123.708317,1.0
461,DUNCAN,GARDEN ST & JAMES ST,48.78209,-123.705564,1.0
462,DUNCAN,JAMES ST & TRANS-CANADA HWY & YORK RD & TURNING LANE,48.782154,-123.699142,2.0
463,DUNCAN,3RD ST & CANADA AVE,48.782535,-123.708443,1.0
464,DUNCAN,3RD ST & JUBILEE ST,48.782539,-123.710234,1.0
465,DUNCAN,TRANS-CANADA HWY & UNIVERSITY WAY & MALL ACCESS & TURNING LANE,48.784525,-123.702388,1.0
466,DUNCAN,BEVERLY ST & DUNCAN ST,48.784871,-123.708317,1.0
467,DUNCAN,BEVERLY ST & YORK RD,48.784884,-123.698833,1.0
468,DUNCAN,COWICHAN LAKE RD & GIBBINS RD & GOVERNMENT ST,48.786159,-123.719936,1.0
469,DUNCAN,BEVERLY ST & TRANS-CANADA HWY & TURNING LANE,48.786627,-123.706189,2.0
470,DUNCAN,CANADA AVE & PHILIP ST,48.789354,-123.711352,1.0
471,DUNCAN,SAYWARD RD & SHERMAN RD,48.791817,-123.716793,1.0
472,DUNCAN,COWICHAN VALLEY TRAIL & LANE RD & SHERMAN RD,48.792108,-123.727016,1.0
473,DUNCAN,AUCHINACHIE RD & SOMENOS RD,48.795757,-123.736411,1.0
474,DUNCAN,GREEN RD & TRANS-CANADA HWY & TURNING LANE,48.799452,-123.716595,1.0
475,SALT SPRING ISLAND,FULFORD-GANGES RD & HOREL RD,48.819094,-123.483208,1.0
476,LAKE COWICHAN,POINT IDEAL DR & SOUTH SHORE RD & WELLINGTON RD W,48.822845,-124.057588,1.0
477,SALT SPRING ISLAND,JACKSON AVE & RAINBOW RD,48.854365,-123.502624,1.0
478,CROFTON,OSBORNE BAY RD & YORK AVE,48.858411,-123.645614,1.0
479,SALT SPRING ISLAND,CROFTON RD & LOWER GANGES RD & PARK DR,48.860145,-123.50968,1.0
480,CHEMAINUS,HENRY RD & TRANS-CANADA HWY & TURNING LANE,48.907579,-123.728521,1.0
481,CHEMAINUS,CHEMAINUS RD & CYPRESS ST,48.922612,-123.719426,1.0
482,CHEMAINUS,CHEMAINUS RD & MALCOLM RD,48.933773,-123.734584,1.0
483,UCLUELET,BAY ST & PENINSULA RD,48.943397,-125.550392,1.0
484,LADYSMITH,CHEMAINUS RD & N WATTS RD,48.967308,-123.784672,1.0
485,LADYSMITH,1ST AVE & ROBERTS ST,48.992582,-123.81638,1.0
486,LADYSMITH,1ST AVE & GATACRE ST,48.993261,-123.817382,1.0
487,LADYSMITH,SHELL BEACH RD & SILVERSTRAND RD,48.995554,-123.78746,1.0
488,ABBOTSFORD,SUMAS WAY,49.002822,-122.265985,1.0
489,ABBOTSFORD,RIVERSIDE RD,49.003323,-122.271574,1.0
490,ABBOTSFORD,CLEARBROOK RD,49.003436,-122.337981,1.0
491,DELTA,56 ST,49.005895,-123.068657,1.0
492,ABBOTSFORD,MCCALLUM RD,49.006125,-122.293732,1.0
493,LANGLEY,200 ST,49.013019,-122.668908,1.0
494,SURREY,188 ST,49.013626,-122.702353,1.0
495,DELTA,56 ST & 6 AVE,49.013768,-123.068623,1.0
496,SURREY,MARINE DR,49.016564,-122.779953,1.0
498,SURREY,176 ST & 8 AVE & TURNING LANE,49.016653,-122.735303,1.0
499,ABBOTSFORD,BRADNER RD & HUNTINGDON RD,49.01676,-122.426517,1.0
500,ABBOTSFORD,HUNTINGDON RD & MT LEHMAN RD,49.017099,-122.386541,1.0
501,DELTA,8A AVE & ENGLISH BLUFF RD & TSAWWASSEN BEACH RD,49.017891,-123.090794,1.0
502,DELTA,52 ST & 8A AVE,49.018066,-123.079622,1.0
503,DELTA,53 ST & 53A ST & 8A AVE,49.018072,-123.07673,1.0
504,SURREY,161A ST & 9 AVE,49.018383,-122.775544,1.0
505,SURREY,160 ST,49.019295,-122.779235,1.0
507,WHITE ROCK,KEIL CRES,49.022457,-122.783566,1.0
508,ABBOTSFORD,LIBERATOR AVE,49.023015,-122.380771,1.0
509,WHITE ROCK,BUENA VISTA AVE & LEE ST,49.023799,-122.787482,1.0
510,DELTA,12 AVE & 56 ST,49.024694,-123.068667,4.0
511,DELTA,12 AVE,49.024695,-123.070027,1.0
512,DELTA,12 AVE & 53A ST,49.0247,-123.075471,1.0
513,DELTA,12 AVE & 55 ST,49.024705,-123.072136,2.0
514,WHITE ROCK,JOHNSTON RD & ROPER AVE,49.02574,-122.80116,1.0
515,SURREY,14 AVE & STAYTE RD & THRIFT AVE,49.027442,-122.779183,1.0
517,DELTA,56 ST & VIEW CRES & MALL ACCESS,49.027466,-123.068688,2.0
518,WHITE ROCK,FINLAY ST & THRIFT AVE,49.027473,-122.790182,1.0
519,WHITE ROCK,BEST ST & THRIFT AVE,49.027524,-122.795692,1.0
520,WHITE ROCK,GEORGE ST & THRIFT AVE,49.027553,-122.799747,2.0
521,WHITE ROCK,JOHNSTON RD & THRIFT AVE,49.027575,-122.80116,3.0
522,WHITE ROCK,MARTIN ST & THRIFT AVE,49.027599,-122.805314,1.0
523,OSOYOOS,COTTONWOOD DR & MAIN ST,49.028875,-119.449475,1.0
524,WHITE ROCK,JOHNSTON RD & RUSSELL AVE,49.029284,-122.801185,3.0
525,WHITE ROCK,GEORGE ST & RUSSELL AVE,49.02929,-122.799748,1.0
526,GRAND FORKS,BOUNDARY DR & CENTRAL AVE,49.029939,-118.45261,1.0
527,WHITE ROCK,BISHOP RD & COLDICUTT AVE,49.030193,-122.830406,1.0
528,WHITE ROCK,OXFORD ST & VINE AVE,49.03032,-122.812225,2.0
529,SURREY,16 AVE & HWY 99,49.030973,-122.769403,1.0
530,WHITE ROCK,FOSTER ST & NORTH BLUFF RD,49.031065,-122.803956,1.0
531,SURREY,156 ST & FINLAY ST & NORTH BLUFF RD,49.031076,-122.79016,3.0
533,SURREY,16 AVE & KING GEORGE BLVD,49.031077,-122.775565,1.0
534,SURREY,154 ST & BEST ST & NORTH BLUFF RD,49.031085,-122.795655,6.0
536,SURREY,152 ST & 16 AVE & JOHNSTON RD & NORTH BLUFF RD,49.031121,-122.801198,10.0
538,SURREY,16 AVE & MARTIN DR & MARTIN ST & NORTH BLUFF RD,49.03113,-122.805309,2.0
540,SURREY,148 ST & NORTH BLUFF RD & OXFORD ST,49.031154,-122.812218,3.0
542,SURREY,145 ST & NORTH BLUFF RD,49.031167,-122.820291,1.0
544,SURREY,142 ST & NORTH BLUFF RD & PHOENIX ST,49.031173,-122.828257,2.0
545,SURREY,NORTH BLUFF RD,49.031173,-122.823983,1.0
548,SURREY,140 ST & NICHOL RD & NORTH BLUFF RD,49.031191,-122.834357,2.0
550,ABBOTSFORD,KING RD & MCCALLUM RD,49.031224,-122.293065,2.0
551,LANGLEY,16 AVE & 272 ST,49.031404,-122.470685,1.0
552,ABBOTSFORD,KING RD & MCKENZIE RD,49.031469,-122.281944,1.0
553,DELTA,16 AVE & FARRELL AVE,49.031973,-123.062247,1.0
554,DELTA,16 AVE & 56 ST,49.032012,-123.067952,3.0
555,SURREY,152 ST,49.032055,-122.801128,1.0
556,SURREY,MARTIN DR & SOUTHMERE CRES & MALL ACCESS,49.032698,-122.805083,2.0
557,SURREY,152 ST & 17 AVE,49.032929,-122.801212,3.0
558,ABBOTSFORD,KING RD & RIVERSIDE RD,49.033033,-122.272183,2.0
559,SURREY,128 ST & 17 AVE,49.033085,-122.867527,1.0
560,OSOYOOS,78TH AVE,49.033757,-119.466775,1.0
561,SURREY,18 AVE & MARTIN DR & SOUTHMERE CRES E,49.034639,-122.803182,1.0
562,LADYSMITH,CEDAR RD & CEDAR RD OFFRAMP & CEDAR RD ONRAMP & TRANS-CANADA HWY & UTURN ROUTE,49.03473,-123.862946,1.0
563,SURREY,152 ST & 18 AVE,49.034748,-122.801212,2.0
564,ABBOTSFORD,KING RD & KING RD CONN & MCCALLUM RD & MCCALLUM RD OFFRAMP & MCCALLUM RD ONRAMP & TRANS-CANADA HWY,49.034944,-122.2928,1.0
565,ABBOTSFORD,VEDDER WAY,49.035875,-122.271713,1.0
566,ABBOTSFORD,LYNN AVE & WESTBURY AVE,49.036179,-122.293619,1.0
567,ABBOTSFORD,CORNWALL AVE & LYNN AVE & MCCALLUM RD,49.036211,-122.293229,2.0
568,ABBOTSFORD,DELAIR RD & EAST DELAIR RD & SUMAS WAY & TURNING LANE,49.036399,-122.267756,4.0
569,SURREY,152 ST & 19 AVE,49.036567,-122.80116,1.0
570,ABBOTSFORD,HORIZON ST & RAINBOW AVE,49.036966,-122.299893,1.0
571,ABBOTSFORD,CLEARBROOK RD & CLEARBROOK RD OFFRAMP & CLEARBROOK RD ONRAMP & MARSHALL RD & MARSHALL RD OFFRAMP & MARSHALL RD ONRAMP & TRANS-CANADA HWY,49.037752,-122.3377,1.0
572,ABBOTSFORD,GLADWIN RD & MARSHALL RD,49.038137,-122.315647,1.0
573,ABBOTSFORD,EMERSON ST & MARSHALL RD,49.038153,-122.318498,4.0
574,ABBOTSFORD,MARSHALL RD & SUMAS WAY & TURNING LANE,49.038185,-122.268965,2.0
575,ABBOTSFORD,BROADWAY ST & MARSHALL RD,49.038204,-122.322788,1.0
576,ABBOTSFORD,MARSHALL RD & PRIMROSE ST,49.038205,-122.309544,1.0
577,ABBOTSFORD,CATALINA CRES & MARSHALL RD,49.038256,-122.3311,1.0
578,ABBOTSFORD,MARSHALL RD & RIVERSIDE RD,49.038261,-122.273799,1.0
579,ABBOTSFORD,MARSHALL RD & WARE ST,49.03827,-122.304525,1.0
580,ABBOTSFORD,SOUTH PARALLEL RD & WHATCOM RD,49.038282,-122.219313,1.0
581,ABBOTSFORD,FILUK PL & MARSHALL RD,49.038294,-122.26128,2.0
582,SURREY,20 AVE & KING GEORGE BLVD,49.038324,-122.784551,1.0
583,SURREY,150 ST & 20 AVE,49.03835,-122.806718,1.0
584,ABBOTSFORD,ABBOTSFORD WAY & MARSHALL RD,49.03836,-122.276928,3.0
585,SURREY,152 ST & 20 AVE,49.03836,-122.801187,3.0
586,SURREY,140 ST & 20 AVE,49.038439,-122.834378,1.0
587,ABBOTSFORD,NORTH PARALLEL RD & OLD YALE RD,49.038485,-122.23336,1.0
588,ABBOTSFORD,MARSHALL RD & MCKENZIE RD,49.038552,-122.282282,1.0
589,ABBOTSFORD,HORIZON ST & MARSHALL RD,49.03859,-122.299914,5.0
590,ABBOTSFORD,MARSHALL RD & SALTON RD,49.038783,-122.287773,2.0
591,ABBOTSFORD,TRANS-CANADA HWY & WHATCOM RD & WHATCOM RD OFFRAMP & WHATCOM RD ONRAMP,49.038989,-122.219833,1.0
592,ABBOTSFORD,MARSHALL RD & MCCALLUM RD,49.039043,-122.293334,4.0
593,ABBOTSFORD,MCCALLUM RD,49.039538,-122.293344,1.0
594,ABBOTSFORD,SOUTH FRASER WAY & SUMAS WAY & TURNING LANE,49.040074,-122.27126,1.0
595,ABBOTSFORD,MAYFAIR AVE & MCCALLUM RD,49.040126,-122.293357,2.0
596,ABBOTSFORD,CLEARBROOK RD & MADIERA PL,49.040439,-122.337203,1.0
597,ABBOTSFORD,BEVAN AVE & BROADWAY ST,49.041826,-122.32267,1.0
598,ABBOTSFORD,BEVAN AVE & EMERSON ST,49.041844,-122.318387,1.0
599,ABBOTSFORD,BEAVER ST & DOLPHIN CRES,49.041901,-122.329155,1.0
600,ABBOTSFORD,BAKERVIEW ST & DOLPHIN CRES,49.041936,-122.331266,1.0
601,ABBOTSFORD,BEVAN AVE & WARE ST,49.041939,-122.304542,3.0
602,SURREY,152 ST & 22 AVE,49.041992,-122.801217,3.0
603,ABBOTSFORD,MARSHALL RD & OLD YALE RD,49.042499,-122.246318,1.0
604,ABBOTSFORD,CLEARBROOK RD & OAK AVE,49.04422,-122.337026,1.0
605,ABBOTSFORD,FARRANT CRES & WARE ST,49.044356,-122.304511,1.0
606,LANGLEY,24 AVE & 240 ST,49.045227,-122.559542,1.0
607,ABBOTSFORD,CAMERON CRES & HARPER DR,49.045338,-122.251567,1.0
608,ABBOTSFORD,BEVAN CRES & PEARDONVILLE RD,49.045481,-122.325822,1.0
609,SURREY,161 ST & 24 AVE,49.045539,-122.776661,2.0
610,SURREY,160 ST & 24 AVE,49.045561,-122.779205,2.0
611,ABBOTSFORD,CANNON AVE & MCCALLUM RD & MCDOUGALL AVE,49.045563,-122.29347,7.0
612,SURREY,24 AVE & CROYDON DR,49.045565,-122.782808,1.0
613,ABBOTSFORD,HILLSIDE DR & MCDOUGALL AVE & PAULINE ST,49.045566,-122.29175,1.0
614,ABBOTSFORD,MCDOUGALL AVE & MONTROSE AVE,49.045569,-122.290368,1.0
615,SURREY,157 ST & 24 AVE,49.045574,-122.787455,1.0
616,SURREY,153 ST & 24 AVE,49.045577,-122.798459,2.0
617,SURREY,24 AVE & KING GEORGE BLVD & TURNING LANE,49.045585,-122.793584,3.0
618,SURREY,156 ST & 24 AVE,49.045591,-122.79019,4.0
619,SURREY,154 ST & 24 AVE,49.045604,-122.795707,1.0
620,SURREY,152 ST & 24 AVE,49.045632,-122.801205,6.0
621,SURREY,150 ST & 24 AVE,49.045638,-122.806718,1.0
622,LANGLEY,200 ST & 24 AVE,49.045644,-122.669406,1.0
623,SURREY,24 AVE,49.04565,-122.796973,1.0
624,SURREY,188 ST & 24 AVE,49.045682,-122.702466,1.0
625,ABBOTSFORD,CLEARBROOK RD & PEARDONVILLE RD & TURNING LANE,49.045751,-122.33697,3.0
626,ABBOTSFORD,PEARDONVILLE RD & TOWNLINE RD & TURNING LANE,49.045866,-122.360044,1.0
627,ABBOTSFORD,PEARDONVILLE RD & SOUTH FRASER WAY,49.045937,-122.348711,2.0
628,ABBOTSFORD,MCDOUGALL AVE & SOUTH FRASER WAY,49.04603,-122.287745,1.0
629,SURREY,161A ST,49.046053,-122.77417,1.0
630,ABBOTSFORD,BECK RD & OLD YALE RD & OLD YALE RD OFFRAMP & OLD YALE RD ONRAMP & SUMAS WAY,49.04628,-122.270951,1.0
631,SURREY,163 ST,49.046452,-122.77091,1.0
632,ABBOTSFORD,HILL-TOUT ST & PEARDONVILLE RD & SOUTH FRASER WAY,49.046498,-122.346043,2.0
633,ABBOTSFORD,OLD YALE RD,49.046596,-122.277841,1.0
634,ABBOTSFORD,LIVINGSTONE AVE & PEARDONVILLE RD & TURNING LANE,49.046629,-122.355237,1.0
635,ABBOTSFORD,LAUREL ST & MONTROSE AVE,49.046665,-122.29037,2.0
636,SURREY,160 ST & MALL ACCESS,49.046824,-122.779226,1.0
637,ABBOTSFORD,BOURQUIN CRES E & BOURQUIN CRES W & WARE ST,49.04684,-122.304503,1.0
638,SURREY,161A ST,49.046959,-122.774912,1.0
639,ABBOTSFORD,LIVINGSTONE AVE & PEARDONVILLE RD,49.047,-122.353844,1.0
640,ABBOTSFORD,OLD YALE RD & ST MORITZ WAY,49.047423,-122.253827,1.0
641,ABBOTSFORD,MCCALLUM RD & SWITZER AVE,49.047638,-122.29362,1.0
642,ABBOTSFORD,CENTER ST & SOUTH FRASER WAY,49.047697,-122.342656,1.0
643,ABBOTSFORD,LILAC CRES,49.047709,-122.326517,1.0
644,ABBOTSFORD,GOSLING WAY & MONTVUE AVE,49.047762,-122.289038,1.0
645,ABBOTSFORD,HILLCREST AVE & PARKVIEW ST,49.047924,-122.33246,1.0
646,ABBOTSFORD,CLEARBROOK RD & HILLCREST AVE,49.048052,-122.337263,3.0
647,ABBOTSFORD,BOURQUIN CRES W & MILL LAKE RD & BUS LANE,49.048103,-122.308253,1.0
648,ABBOTSFORD,PAULINE ST & SOUTH FRASER WAY,49.048249,-122.291551,1.0
649,ABBOTSFORD,OLD YALE RD,49.048471,-122.265677,1.0
650,ABBOTSFORD,COUNTESS ST & SOUTH FRASER WAY,49.048598,-122.340236,3.0
651,ABBOTSFORD,MCMILLAN RD & OLD YALE RD,49.048612,-122.26024,5.0
652,ABBOTSFORD,CEDAR LANE & CLEARBROOK RD,49.048636,-122.337262,1.0
653,ABBOTSFORD,EMERSON ST,49.048798,-122.318122,1.0
654,ABBOTSFORD,ESSENDENE AVE & GLADYS AVE,49.048964,-122.2877,2.0
655,ABBOTSFORD,ESSENDENE AVE & MONTVUE AVE & WEST RAILWAY ST,49.048975,-122.289007,1.0
656,ABBOTSFORD,ESSENDENE AVE & MONTROSE AVE,49.048987,-122.290332,4.0
657,ABBOTSFORD,ESSENDENE AVE & MCCALLUM RD & SOUTH FRASER WAY & TURNING LANE,49.048997,-122.292984,4.0
658,ABBOTSFORD,ADELAIDE ST & HILLCREST AVE,49.049022,-122.328109,1.0
659,SURREY,156 ST & 26 AVE & CRANLEY DR,49.049203,-122.790202,1.0
660,SURREY,160 ST & 26 AVE & INSTITUTIONAL ACCESS ROAD,49.049203,-122.779214,1.0
661,SURREY,158 ST & 26 AVE & MALL ACCESS,49.049216,-122.784671,1.0
662,ABBOTSFORD,HILLCREST AVE & LILAC CRES & TRETHEWEY ST,49.049259,-122.326489,1.0
663,ABBOTSFORD,HILLCREST AVE & SUGARPINE ST,49.049327,-122.325164,1.0
664,ABBOTSFORD,COMMERCIAL ST & HILLCREST AVE,49.049353,-122.322421,1.0
665,ABBOTSFORD,ROBERTS AVE & SOUTH FRASER WAY,49.049354,-122.295478,1.0
666,ABBOTSFORD,GLADWIN RD & HILLCREST AVE,49.049485,-122.315254,1.0
667,ABBOTSFORD,MONTROSE AVE,49.049574,-122.290313,1.0
668,ABBOTSFORD,CLEARBROOK RD & SOUTH FRASER WAY & TURNING LANE,49.049624,-122.337482,8.0
669,SURREY,128 ST & 26 AVE,49.049715,-122.867363,1.0
670,ABBOTSFORD,OLD YALE RD & SOUTH FRASER WAY & TESSARO CRES,49.049869,-122.299081,1.0
671,ABBOTSFORD,BOURQUIN CRES E & SOUTH FRASER WAY,49.049912,-122.300102,2.0
672,ABBOTSFORD,GEORGE FERGUSON WAY & MCCALLUM RD,49.050068,-122.29377,1.0
673,ABBOTSFORD,GEORGE FERGUSON WAY & GLADYS AVE,49.050124,-122.287669,1.0
674,ABBOTSFORD,CYRIL ST & GEORGE FERGUSON WAY,49.050142,-122.286463,1.0
675,ABBOTSFORD,GEORGE FERGUSON WAY & MONTROSE AVE,49.050148,-122.290205,1.0
676,ABBOTSFORD,LUCERN CRES & ST MORITZ WAY,49.050188,-122.252308,1.0
677,ABBOTSFORD,SOUTH FRASER WAY,49.050379,-122.303461,1.0
678,ABBOTSFORD,CEDAR PARK PL & SOUTH FRASER WAY,49.050427,-122.335338,1.0
679,ABBOTSFORD,SOUTH FRASER WAY & WARE ST,49.050434,-122.304426,4.0
680,ABBOTSFORD,FAIRLANE ST & SOUTH FRASER WAY,49.050744,-122.307864,1.0
681,ABBOTSFORD,BOURQUIN CRES W & SOUTH FRASER WAY,49.050823,-122.309999,1.0
682,ABBOTSFORD,SOUTH FRASER WAY,49.050858,-122.312597,1.0
683,ABBOTSFORD,MONTROSE AVE & UNNAMED LANE,49.051011,-122.290184,1.0
684,SURREY,192 ST & 27 AVE,49.051028,-122.691452,1.0
685,ABBOTSFORD,GLADWIN RD & SOUTH FRASER WAY & TURNING LANE,49.051029,-122.315111,4.0
686,ABBOTSFORD,EMERSON ST & SOUTH FRASER WAY & UNSIGNED,49.051157,-122.318318,2.0
687,ABBOTSFORD,CAMBIE ST & SWENSSON AVE,49.051207,-122.451817,1.0
688,ABBOTSFORD,ALLWOOD ST & SOUTH FRASER WAY,49.051222,-122.319926,1.0
689,ABBOTSFORD,GARDEN ST & SOUTH FRASER WAY,49.051286,-122.321538,2.0
690,ABBOTSFORD,OLD YALE RD & WARE ST,49.051391,-122.304087,1.0
691,ABBOTSFORD,MCMILLAN RD & SANDON DR & SANDON PL,49.051413,-122.260407,1.0
692,ABBOTSFORD,SOUTH FRASER WAY & TRETHEWEY ST & TURNING LANE,49.051487,-122.326661,8.0
693,ABBOTSFORD,ADELAIDE ST & SOUTH FRASER WAY,49.05156,-122.328356,1.0
694,ABBOTSFORD,JAMES ST & SOUTH FRASER WAY,49.051591,-122.329474,1.0
695,SURREY,152 ST & KING GEORGE BLVD & TURNING LANE,49.051786,-122.801262,1.0
696,ABBOTSFORD,CLEARBROOK RD & OLD YALE RD,49.051924,-122.337779,7.0
697,ABBOTSFORD,OLD YALE RD & PRINCESS ST,49.051999,-122.343519,1.0
698,ABBOTSFORD,ASH ST & GREEN AVE & WALNUT AVE,49.052695,-122.277315,1.0
699,SURREY,144 ST & 28 AVE,49.052962,-122.823185,1.0
700,LANGLEY,272 ST & 28 AVE,49.053112,-122.470686,1.0
701,ABBOTSFORD,SIMON AVE & TRETHEWEY ST & VETERANS WAY,49.053256,-122.326746,2.0
702,ABBOTSFORD,CRUICKSHANK ST & SIMON AVE,49.053268,-122.324117,1.0
703,ABBOTSFORD,MT LEHMAN RD & SOUTH FRASER WAY,49.053549,-122.381182,1.0
704,ABBOTSFORD,GLADWIN RD & LANDEAU PL & SIMON AVE,49.053571,-122.315008,3.0
705,ABBOTSFORD,CLEARBROOK RD & HOPEDALE AVE & TIMS AVE,49.054004,-122.337908,1.0
706,SURREY,28 AVE & 29A AVE & KING GEORGE BLVD,49.05402,-122.804014,1.0
707,ABBOTSFORD,MACLURE RD & TOWNLINE RD & TURNING LANE,49.054195,-122.359983,3.0
708,LANGLEY,272 ST & 28B AVE,49.054787,-122.470697,1.0
709,ABBOTSFORD,CLEARBROOK RD & GEORGE FERGUSON WAY,49.054848,-122.3379,3.0
710,ABBOTSFORD,GEORGE FERGUSON WAY & JUSTICE WAY,49.054976,-122.330926,1.0
711,ABBOTSFORD,GEORGE FERGUSON WAY & TRETHEWEY ST,49.05506,-122.326764,2.0
712,ABBOTSFORD,BLUE JAY ST & FRASER HWY & LIVINGSTONE AVE & MACLURE RD,49.055201,-122.370416,2.0
713,ABBOTSFORD,GEORGE FERGUSON WAY & GLADWIN RD & TURNING LANE,49.05536,-122.315258,5.0
714,SURREY,152 ST & 29A AVE,49.055441,-122.80112,2.0
715,ABBOTSFORD,OLD CLAYBURN RD & OLD CLAYBURN RD OFFRAMP & OLD CLAYBURN RD ONRAMP & SUMAS WAY,49.055668,-122.27323,1.0
716,ABBOTSFORD,EDGEHILL AVE,49.055671,-122.362193,1.0
717,SURREY,KING GEORGE BLVD,49.055877,-122.80632,1.0
718,LANGLEY,270B ST,49.056409,-122.47409,1.0
719,ABBOTSFORD,IMMEL ST & OLD CLAYBURN RD,49.056443,-122.271784,3.0
720,ABBOTSFORD,FRASER HWY,49.056731,-122.391546,1.0
721,ABBOTSFORD,SOUTHERN DR & TOWNLINE RD,49.057075,-122.360026,1.0
722,ABBOTSFORD,BLUE JAY ST & CURLEW DR,49.057119,-122.370441,1.0
723,ABBOTSFORD,FRASER HWY & LEFEUVRE RD,49.057383,-122.448771,3.0
724,ABBOTSFORD,FRASER HWY & ROSS RD,49.057584,-122.403618,1.0
725,ABBOTSFORD,FRASER HWY & STATION RD & TURNING LANE,49.057649,-122.459765,6.0
727,ABBOTSFORD,FRASER HWY OFFRAMP & HIGHSTREET ACCESS RD & MACLURE RD OFFRAMP & MT LEHMAN RD & MT LEHMAN RD OFFRAMP & TRANS-CANADA HWY & TRANS-CANADA HWY ONRAMP,49.057775,-122.381509,1.0
728,ABBOTSFORD,GARIBALDI DR,49.057828,-122.318485,1.0
729,SURREY,152 ST,49.057836,-122.801149,1.0
730,LANGLEY,273 ST & FRASER HWY,49.057856,-122.467263,1.0
731,LANGLEY,264 ST & 30A AVE,49.05789,-122.492683,1.0
732,LANGLEY,FRASER HWY,49.05795,-122.469004,1.0
733,LANGLEY,272 ST & FRASER HWY,49.058044,-122.470744,4.0
734,LANGLEY,268 ST & FRASER HWY,49.058618,-122.481705,1.0
735,ABBOTSFORD,GLADYS AVE & HWY 11 & SUMAS WAY & TURNING LANE,49.058662,-122.286506,1.0
736,ABBOTSFORD,CHARLOTTE AVE & CLEARBROOK RD,49.058669,-122.337909,2.0
737,ABBOTSFORD,CARDINAL AVE & CURLEW DR & HIGHSTREET ACCESS RD,49.059032,-122.375843,2.0
738,DELTA,DELTAPORT WAY ONRAMP & HWY 17,49.059427,-123.053678,1.0
739,LANGLEY,264 ST & FRASER HWY & TURNING LANE,49.059526,-122.49269,3.0
740,DELTA,ARTHUR DR & DELTAPORT WAY & TURNING LANE,49.059701,-123.077847,1.0
741,SURREY,32 AVE & 32 AVE DIVERSION,49.059735,-122.80822,2.0
742,ABBOTSFORD,MACLURE RD & TRETHEWEY ST & TURNING LANE,49.060097,-122.326977,5.0
743,ABBOTSFORD,GLADWIN RD & MACLURE RD,49.060107,-122.314268,1.0
744,ABBOTSFORD,CLEARBROOK RD & MACLURE RD,49.060115,-122.337921,3.0
745,SURREY,192 ST & 32 AVE,49.060123,-122.691534,1.0
746,LANGLEY,208 ST & 32 AVE,49.060232,-122.647366,1.0
747,SURREY,32 AVE & KING GEORGE BLVD,49.060255,-122.811812,2.0
748,ABBOTSFORD,UPPER MACLURE RD & WAGNER DR,49.060368,-122.355439,1.0
749,LANGLEY,268 ST & 32 AVE,49.060411,-122.481579,1.0
750,ABBOTSFORD,CARDINAL AVE,49.060449,-122.380032,1.0
751,ABBOTSFORD,BLUE JAY ST & SANDPIPER DR,49.060459,-122.370502,2.0
752,ABBOTSFORD,AUTOMALL DR & CARDINAL AVE & MT LEHMAN RD & TURNING LANE,49.060484,-122.381225,2.0
753,LANGLEY,272 ST & 32 AVE,49.060484,-122.470699,2.0
754,SURREY,154 ST & 32 AVE & 32 AVE DIVERSION & CROYDON DR,49.060643,-122.797402,1.0
755,ABBOTSFORD,OLD CLAYBURN RD & VERNON TERR,49.061008,-122.258753,1.0
756,ABBOTSFORD,HORN ST & MACLURE RD & TRAFALGAR ST,49.061039,-122.308031,1.0
757,SURREY,148 ST & 32A AVE & KING GEORGE BLVD,49.061292,-122.813026,3.0
758,SURREY,152 ST & 32 AVE DIVERSION & TURNING LANE,49.06158,-122.801183,2.0
759,ABBOTSFORD,AUTOMALL DR,49.061624,-122.388968,1.0
760,ABBOTSFORD,SLOCAN DR & TRETHEWEY ST,49.062281,-122.327009,1.0
761,ABBOTSFORD,ASHCROFT DR & ASTORIA CRES,49.062327,-122.333009,1.0
762,SURREY,34 AVE & ROSEMARY HEIGHTS CRES,49.063727,-122.798354,1.0
763,SURREY,152 ST & 34 AVE,49.063727,-122.801194,1.0
764,ABBOTSFORD,ASHCROFT DR & BALFOUR DR & MERRITT ST,49.063854,-122.33587,1.0
765,LANGLEY,199A ST,49.06407,-122.67103,1.0
766,ABBOTSFORD,BLUERIDGE DR & CLEARBROOK RD,49.064559,-122.338078,2.0
767,ABBOTSFORD,GOLDEN AVE & TRETHEWEY ST,49.064735,-122.327542,2.0
768,ABBOTSFORD,GLADWIN RD & OKANAGAN DR,49.064773,-122.316004,1.0
769,ABBOTSFORD,FIRHILL DR & RIDGEVIEW DR & TOWNLINE RD,49.064778,-122.359902,2.0
770,ABBOTSFORD,BLUERIDGE DR & CRESTVIEW AVE & GOLDFINCH ST,49.065764,-122.377114,1.0
771,ABBOTSFORD,BLUE JAY ST & BLUERIDGE DR,49.065875,-122.370757,1.0
772,ABBOTSFORD,BLUERIDGE DR & NIGHTINGALE DR,49.065882,-122.372677,1.0
773,DELTA,34B AVE OVERPASS & HWY 17A,49.066023,-123.057204,1.0
774,ABBOTSFORD,GLADWIN RD & HAIDA DR,49.067044,-122.315971,1.0
775,ABBOTSFORD,HAIDA DR & QUALICUM ST,49.067332,-122.323022,1.0
776,SURREY,152 ST & 36 AVE,49.067359,-122.80119,1.0
777,LANGLEY,200 ST & 36 AVE,49.067408,-122.669508,1.0
778,SURREY,CRESCENT RD & ELGIN RD,49.067465,-122.825472,1.0
779,ABBOTSFORD,BLUERIDGE DR & HOMESTEAD CRES & RIDGEVIEW DR,49.067475,-122.348728,1.0
780,ABBOTSFORD,BLUERIDGE DR & TOWNLINE RD,49.067694,-122.359821,3.0
781,ABBOTSFORD,GREENDALE CRT,49.069028,-122.379953,1.0
782,ABBOTSFORD,FIELDGATE ST & HOMESTEAD CRES,49.069077,-122.352288,1.0
783,LANGLEY,248 ST & FRASER HWY,49.069418,-122.536944,1.0
784,ABBOTSFORD,LABURNUM AVE & OLD CLAYBURN RD & SANDY HILL RD,49.071648,-122.249422,1.0
785,SURREY,152 ST & 40 AVE & TURNING LANE,49.074652,-122.801145,1.0
786,LANGLEY,200 ST & 40 AVE & PARK ACCESS ROAD,49.074716,-122.669557,1.0
787,LANGLEY,272 ST & 40 AVE,49.074948,-122.470887,2.0
788,LANGLEY,FRASER HWY,49.075243,-122.561681,1.0
789,LANGLEY,200 ST & 41 AVE,49.076673,-122.669467,2.0
790,NANAIMO,NANAIMO RIVER RD & WHITE RAPIDS RD,49.07737,-123.929454,1.0
791,LANGLEY,208 ST & 42 AVE,49.078301,-122.647321,1.0
792,DELTA,43A AVE & 64 ST,49.081641,-123.046279,1.0
793,CHILLIWACK,WILSON RD & YARROW CENTRAL RD,49.082073,-122.045576,2.0
794,LANGLEY,232 ST & FRASER HWY,49.082213,-122.581347,1.0
795,DELTA,44 AVE & ARTHUR DR,49.083078,-123.077962,1.0
796,DELTA,46A ST & KELLY DR,49.083761,-123.095188,1.0
797,DELTA,45 AVE & ARTHUR DR,49.085139,-123.079084,1.0
798,DELTA,45 AVE & 53 ST & MAPLE CRES,49.08547,-123.075912,1.0
799,LANGLEY,232 ST & 46 AVE,49.085563,-122.581331,1.0
800,DELTA,48B ST,49.085812,-123.088736,1.0
801,ABBOTSFORD,OLUND RD,49.086006,-122.366474,1.0
802,LANGLEY,222A ST & 46A AVE,49.086507,-122.606991,1.0
803,LANGLEY,221A ST & 46B AVE,49.087114,-122.609121,1.0
804,LANGLEY,GRADE CRES,49.088721,-122.65566,1.0
805,DELTA,57 ST,49.089238,-123.065285,2.0
806,LANGLEY,248 ST & 48 AVE,49.089298,-122.537095,1.0
807,CHILLIWACK,LUMSDEN RD & SIMMONS RD,49.089316,-122.030707,1.0
808,LANGLEY,222 ST & 48 AVE,49.089385,-122.608114,1.0
809,LANGLEY,219 ST & 48 AVE & OLD YALE RD,49.089409,-122.616829,1.0
810,LANGLEY,216 ST & 48 AVE & OLD YALE RD,49.089417,-122.624744,1.0
811,LANGLEY,48 AVE & FRASER HWY,49.089503,-122.601738,2.0
812,LANGLEY,203 ST & 48 AVE & GRADE CRES,49.089879,-122.659797,2.0
813,DELTA,47A AVE & ARTHUR DR & ELLIOTT ST & LADNER TRUNK RD,49.090025,-123.082032,1.0
814,DELTA,104 ST & HORNBY DR,49.090065,-122.93481,1.0
815,DELTA,64 ST & LADNER TRUNK RD,49.090134,-123.046243,1.0
816,DELTA,48 AVE & GEORGIA ST,49.090148,-123.087756,1.0
817,DELTA,HWY 17A & LADNER TRUNK RD & TURNING LANE,49.090175,-123.056956,2.0
818,DELTA,HARVEST DR & LADNER TRUNK RD,49.090195,-123.062988,5.0
819,DELTA,54A ST & LADNER TRUNK RD,49.090219,-123.072347,1.0
820,DELTA,53 ST & LADNER TRUNK RD,49.090221,-123.075847,1.0
821,DELTA,52A ST & LADNER TRUNK RD,49.090238,-123.078426,4.0
822,DELTA,CENTRAL AVE & LADNER TRUNK RD,49.090251,-123.080991,2.0
823,WARFIELD,SCHOFIELD HWY,49.090942,-117.753226,1.0
824,LANGLEY,232 ST,49.091183,-122.581291,1.0
825,DELTA,48A AVE & 53 ST,49.091227,-123.075834,1.0
826,DELTA,48B AVE & 57 ST,49.091392,-123.065259,1.0
827,LANGLEY,222 ST & FRASER HWY,49.0915,-122.607852,3.0
828,CRESTON,16TH AVE S & CEDAR ST,49.091854,-116.506737,2.0
829,DELTA,BRIDGE ST & ELLIOTT ST & WESTMINSTER AVE,49.091919,-123.084237,1.0
830,LANGLEY,200 ST & 50 AVE,49.093443,-122.668619,1.0
831,NANAIMO,ELLIOT RD & MORDEN RD & SCHOOLHOUSE RD & TRANS-CANADA HWY & TURNING LANE,49.093665,-123.885889,1.0
832,DELTA,61 ST & BRODIE RD,49.09388,-123.05438,1.0
833,DELTA,55B ST & GROVE AVE,49.09507,-123.068442,1.0
834,CRESTON,10TH AVE N & CANYON ST & COOK ST & NORTHWEST BLVD,49.095496,-116.51349,1.0
835,CRESTON,11TH AVE N & CANYON ST,49.09551,-116.511857,2.0
836,CRESTON,12TH AVE N & 12TH AVE S & CANYON ST,49.095511,-116.510497,1.0
837,CRESTON,NORTHWEST BLVD,49.095876,-116.514523,1.0
838,LANGLEY,216 ST & FRASER HWY,49.09598,-122.624579,2.0
839,TRAIL,MAIN ST & SECOND AVE,49.096106,-117.696226,1.0
840,CRESTON,16TH AVE N & PINE ST,49.096771,-116.50692,1.0
841,LANGLEY,221A ST & 52 AVE,49.096882,-122.610295,1.0
842,LANGLEY,206 ST & 51B AVE,49.096978,-122.651463,1.0
843,TRAIL,CEDAR AVE & VICTORIA ST,49.097141,-117.71069,1.0
844,TRAIL,BAILEY ST & BAY AVE & VICTORIA ST,49.097612,-117.709661,1.0
845,CRESTON,10TH AVE N & VANCOUVER ST,49.097773,-116.51343,1.0
846,LANGLEY,200 ST & 53 AVE,49.098462,-122.668738,4.0
847,LANGLEY,201A ST & 53 AVE,49.098463,-122.664355,2.0
848,LANGLEY,204 ST & 53 AVE,49.098486,-122.656842,1.0
849,LANGLEY,203 ST & 53A AVE,49.099431,-122.659801,1.0
850,TRAIL,FOURTH AVE,49.099911,-117.70084,1.0
851,LANGLEY,203 ST & 54 AVE,49.100407,-122.659774,1.0
852,SURREY,188 ST & 54 AVE,49.100525,-122.701695,1.0
853,SURREY,189A ST & 54 AVE,49.100617,-122.696685,1.0
854,LANGLEY,208 ST & FRASER HWY & LANGLEY BYPASS & TURNING LANE,49.101037,-122.643412,1.0
855,TRAIL,GOEPEL ST & SECOND AVE,49.101375,-117.704448,1.0
856,LANGLEY,208 ST & DOUGLAS CRES,49.101559,-122.646851,1.0
857,LANGLEY,264 ST & 264 ST ONRAMP & 56 AVE & 56 AVE OFFRAMP & 56 AVE ONRAMP & TRANS-CANADA HWY & TURNING LANE,49.101569,-122.492803,1.0
858,SURREY,152 ST & 54A AVE,49.10169,-122.80106,1.0
859,LANGLEY,200 ST,49.102215,-122.66869,1.0
860,CHILLIWACK,STONEVIEW DR & TESKEY RD,49.102305,-121.946739,1.0
861,FRUITVALE,NINE MILE RD & WEBSTER RD,49.102485,-117.528966,1.0
862,LANGLEY,207 ST & FRASER HWY,49.102801,-122.648477,2.0
863,LANGLEY,55A AVE,49.103029,-122.566978,1.0
864,LANGLEY,200 ST & 55A AVE,49.103212,-122.668865,1.0
865,LANGLEY,DOUGLAS CRES,49.103364,-122.655062,1.0
866,LANGLEY,206 ST & FRASER HWY,49.103534,-122.651169,2.0
867,LANGLEY,56 AVE,49.103595,-122.476411,1.0
868,LANGLEY,203 ST & MICHAUD CRES,49.103637,-122.660419,1.0
869,ABBOTSFORD,HARRIS RD & RIVERSIDE ST,49.103753,-122.294152,1.0
870,ABBOTSFORD,HARRIS RD & WALLACE ST,49.103774,-122.290624,1.0
871,ABBOTSFORD,HARRIS RD & HWY 11 & TURNING LANE,49.103777,-122.289822,1.0
872,CHILLIWACK,CARTER RD & KEITH WILSON RD,49.103842,-121.984672,1.0
873,CHILLIWACK,KEITH WILSON RD & LINDYS DR,49.103846,-121.990796,2.0
874,CHILLIWACK,CANTERBURY DR & KEITH WILSON RD & PEACH RD,49.103859,-121.98695,1.0
875,CHILLIWACK,DIEPPE ST & GARRISON BLVD & KEITH WILSON RD,49.103866,-121.965925,3.0
876,CHILLIWACK,KEITH WILSON RD & VEDDER RD,49.103912,-121.962587,1.0
877,ABBOTSFORD,GLENMORE RD & HARRIS RD,49.103915,-122.338451,1.0
878,LANGLEY,216 ST & 56 AVE,49.10392,-122.624498,1.0
879,LANGLEY,232 ST & 56 AVE,49.103962,-122.58115,1.0
880,LANGLEY,203 ST & 56 AVE & DOUGLAS CRES & TURNING LANE,49.104113,-122.660326,5.0
881,SURREY,184 ST & 56 AVE,49.104123,-122.712681,2.0
882,SURREY,180 ST & 56 AVE,49.104144,-122.72384,4.0
883,SURREY,188 ST & 56 AVE,49.104152,-122.701651,1.0
884,SURREY,172 ST & 56 AVE,49.104159,-122.746089,1.0
885,SURREY,177B ST & 56 AVE & MALL ACCESS,49.104168,-122.730304,5.0
886,SURREY,168 ST & 56 AVE,49.104286,-122.756658,1.0
887,LANGLEY,201A ST & 56 AVE,49.104304,-122.664144,4.0
888,LANGLEY,200 ST & 56 AVE,49.104342,-122.668826,5.0
889,SURREY,HWY 10,49.10435,-122.799097,1.0
890,LANGLEY,56 AVE,49.104376,-122.67552,1.0
891,SURREY,152 ST & 56 AVE,49.104433,-122.801032,6.0
892,SURREY,192 ST & 56 AVE & LANGLEY BYPASS & TURNING LANE,49.104481,-122.691136,1.0
893,SURREY,56 AVE & 58 AVE & KING GEORGE BLVD & TURNING LANE,49.104511,-122.831256,1.0
894,LANGLEY,56 AVE & LANGLEY BYPASS & TURNING LANE,49.104596,-122.642843,1.0
895,LANGLEY,208 ST & 56 AVE,49.104666,-122.646757,2.0
896,LANGLEY,204 ST & FRASER HWY & GLOVER RD,49.104689,-122.656269,2.0
897,LANGLEY,206 ST & 56 AVE & LOGAN AVE,49.104764,-122.651085,3.0
898,LANGLEY,56 AVE & FRASER HWY & MALL ACCESS,49.105038,-122.657815,1.0
899,SURREY,177B ST & 56A AVE,49.105058,-122.730314,1.0
900,SURREY,148 ST,49.105444,-122.812295,1.0
901,LANGLEY,203 ST & FRASER HWY,49.105522,-122.660161,2.0
902,SURREY,175 ST & 57 AVE,49.105987,-122.738233,1.0
903,CHILLIWACK,LARK RD & VEDDER RD,49.105995,-121.96088,1.0
904,LANGLEY,GLOVER RD & LOGAN AVE,49.10609,-122.653406,7.0
905,CHILLIWACK,THOMAS RD & VEDDER RD & MALL ACCESS,49.106623,-121.960305,3.0
906,LANGLEY,201A ST & FRASER HWY,49.106788,-122.664131,1.0
907,LANGLEY,272 ST & 58 AVE,49.106824,-122.470503,1.0
908,SURREY,188 ST & 57 AVE,49.107006,-122.701667,2.0
909,LANGLEY,264 ST & 58 AVE,49.107564,-122.492737,1.0
910,LANGLEY,203A ST,49.107601,-122.658177,1.0
911,SURREY,176 ST & 58 AVE,49.107765,-122.734938,1.0
912,SURREY,179 ST & 58 AVE,49.107779,-122.726891,1.0
913,LANGLEY,203A ST & LOGAN AVE,49.107984,-122.65818,1.0
914,SURREY,128 ST & 58 AVE,49.108112,-122.867838,1.0
915,DELTA,120 ST & 58 AVE & HWY 10 & TURNING LANE,49.108236,-122.890432,1.0
917,SURREY,182 ST & 58A AVE,49.108251,-122.718285,1.0
918,SURREY,152 ST & 58A AVE & PANORAMA DR,49.108416,-122.801024,3.0
919,LANGLEY,200 ST & FRASER HWY & TURNING LANE,49.108911,-122.668758,9.0
920,LANGLEY,DUNCAN WAY & GLOVER RD,49.109099,-122.649496,1.0
921,LANGLEY,268 ST,49.109127,-122.482147,1.0
922,SURREY,138 ST & 139 ST & 58A AVE,49.109679,-122.838883,1.0
923,DELTA,104 ST & 59 AVE,49.109851,-122.934973,1.0
924,LANGLEY,FRASER HWY & PRODUCTION WAY,49.11011,-122.671456,1.0
925,LANGLEY,200 ST & INDUSTRIAL AVE,49.110127,-122.668728,1.0
926,NANAIMO,DUKE POINT HWY & TRANS-CANADA HWY,49.110181,-123.901565,1.0
927,LANGLEY,LANGLEY BYPASS,49.110811,-122.677607,1.0
928,LANGLEY,268 ST & 60 AVE,49.110921,-122.482221,1.0
929,CHILLIWACK,PROMONTORY RD,49.111014,-121.941926,1.0
930,CHILLIWACK,TYSON RD & WATSON RD,49.111082,-121.976346,1.0
931,CHILLIWACK,ARLINGTON DR & WATSON RD,49.111178,-121.971989,1.0
932,CHILLIWACK,SAPPERS WAY & WATSON RD,49.111208,-121.968606,1.0
933,LANGLEY,196A ST & 60 AVE,49.111227,-122.678264,1.0
934,CHILLIWACK,MILLER DR & WATSON RD,49.111271,-121.963605,2.0
935,CHILLIWACK,CHILLIWACK RIVER RD & PROMONTORY RD,49.111291,-121.943482,1.0
936,CHILLIWACK,PROMONTORY RD & VEDDER RD & WATSON RD,49.111297,-121.957926,6.0
937,SURREY,192 ST & 60 AVE,49.11131,-122.691204,1.0
938,SURREY,188 ST & 60 AVE,49.111322,-122.701692,3.0
939,SURREY,184 ST & 60 AVE,49.111421,-122.712628,1.0
940,SURREY,177B ST & 60 AVE,49.111467,-122.730296,5.0
941,SURREY,176 ST & 60 AVE,49.111493,-122.734863,4.0
942,SURREY,172 ST & 60 AVE,49.111522,-122.746012,1.0
943,SURREY,168 ST & 60 AVE,49.111545,-122.756651,2.0
944,SURREY,60 AVE & OLD MCLELLAN RD,49.111548,-122.756945,1.0
945,SURREY,60 AVE,49.111551,-122.766288,1.0
946,SURREY,152 ST & 60 AVE,49.111725,-122.80099,5.0
947,SURREY,150 ST & 60 AVE,49.111748,-122.806583,1.0
948,SURREY,148 ST & 60 AVE,49.111793,-122.812263,1.0
949,SURREY,128 ST & 60 AVE,49.111809,-122.867838,2.0
950,SURREY,142 ST & 60 AVE,49.111826,-122.828846,1.0
951,SURREY,60 AVE & KING GEORGE BLVD & TURNING LANE,49.111848,-122.840279,2.0
952,SURREY,140 ST & 60 AVE,49.111852,-122.83438,2.0
953,LANGLEY,FRASER HWY & LANGLEY BYPASS & TURNING LANE,49.111887,-122.675391,5.0
954,LANGLEY,200 ST & LANGLEY BYPASS & TURNING LANE,49.113414,-122.668651,2.0
955,LANGLEY,216 ST & 61 AVE,49.113786,-122.624369,1.0
956,LANGLEY,196 ST & FRASER HWY & WILLOWBROOK DR & MALL ACCESS & TURNING LANE,49.11388,-122.679741,4.0
958,SURREY,127 ST & 61A AVE,49.113946,-122.870676,1.0
959,LANGLEY,61 AVE,49.114048,-122.614221,1.0
960,DELTA,HWY 99 & RIVER RD,49.114086,-123.066169,1.0
961,SURREY,150 ST,49.11455,-122.806589,1.0
962,LANGLEY,204 ST & 62 AVE & TURNING LANE & UNSIGNED,49.1151,-122.656727,1.0
963,LANGLEY,202 ST & 62 AVE,49.115224,-122.663119,1.0
964,LANGLEY,200 ST & 62 AVE & TURNING LANE,49.115318,-122.668448,1.0
965,SURREY,132 ST & 62 AVE,49.115382,-122.856565,1.0
966,SURREY,136 ST & 62 AVE,49.115434,-122.845424,1.0
967,SURREY,62 AVE,49.115436,-122.845146,1.0
968,SURREY,129A ST & 62 AVE,49.115462,-122.863719,1.0
969,SURREY,142 ST & 62 AVE,49.115495,-122.82882,1.0
970,SURREY,176 ST & 62 AVE,49.115721,-122.734917,1.0
971,SURREY,188 ST & 63 AVE,49.116636,-122.701749,1.0
972,LANGLEY,200 ST & WILLOWBROOK DR & TURNING LANE,49.116745,-122.66857,1.0
973,LANGLEY,198 ST & WILLOWBROOK DR & MALL ACCESS,49.116785,-122.674712,2.0
974,LANGLEY,197 ST & WILLOWBROOK DR,49.11681,-122.677067,2.0
975,SURREY,132 ST & 62B AVE,49.116845,-122.856525,1.0
976,SURREY,128 ST & 63 AVE,49.11729,-122.867839,1.0
977,SURREY,63A AVE,49.11773,-122.823861,1.0
978,RICHMOND,DYKE RD & LONDON RD,49.117755,-123.157443,1.0
979,SURREY,142 ST,49.118023,-122.828819,1.0
980,SURREY,167 ST & 63B AVE,49.118038,-122.760107,1.0
981,SURREY,152 ST & MALL ACCESS,49.118174,-122.80106,1.0
982,CHILLIWACK,SOUTH SUMAS RD & WILTSHIRE ST,49.118406,-121.96421,1.0
983,CHILLIWACK,SOUTH SUMAS RD & VEDDER RD,49.118418,-121.957837,1.0
984,LANGLEY,256 ST & 64 AVE,49.118619,-122.514897,1.0
985,SURREY,184 ST & 64 AVE,49.118731,-122.71259,2.0
986,SURREY,180 ST & 64 AVE,49.118735,-122.723767,1.0
987,SURREY,176 ST & 64 AVE,49.118761,-122.734941,4.0
988,SURREY,172 ST & 64 AVE,49.118845,-122.745974,5.0
989,SURREY,168 ST & 64 AVE,49.118911,-122.756561,7.0
990,SURREY,166 ST & 64 AVE,49.118919,-122.762389,2.0
991,LANGLEY,232 ST & 64 AVE,49.118928,-122.581664,1.0
992,LANGLEY,203 ST & 64 AVE,49.118938,-122.660113,2.0
993,SURREY,188 ST & 64 AVE,49.11896,-122.701715,2.0
994,SURREY,131A ST & 64 AVE,49.118964,-122.858297,1.0
995,SURREY,64 AVE & FRASER HWY & TURNING LANE,49.11897,-122.691352,2.0
996,LANGLEY,202 ST & 64 AVE & MALL ACCESS,49.118971,-122.663322,2.0
997,LANGLEY,200 ST & 64 AVE,49.118995,-122.668532,1.0
998,SURREY,132 ST & 64 AVE,49.119007,-122.856492,5.0
999,SURREY,64 AVE & UNNAMED LANE,49.119011,-122.69846,1.0
1000,LANGLEY,198 ST & 64 AVE,49.119019,-122.674716,1.0
1001,SURREY,134 ST & 64 AVE,49.119024,-122.850994,4.0
1002,SURREY,64 AVE & KING GEORGE BLVD & TURNING LANE,49.119042,-122.845493,4.0
1003,SURREY,129A ST & 64 AVE,49.119063,-122.863705,1.0
1004,SURREY,152 ST & 64 AVE,49.119069,-122.801005,4.0
1005,LANGLEY,196 ST & 64 AVE,49.119071,-122.679946,2.0
1007,SURREY,138 ST & 64 AVE,49.119073,-122.839868,1.0
1008,SURREY,142 ST & 64 AVE,49.119108,-122.828819,2.0
1009,SURREY,128 ST & 64 AVE,49.119119,-122.867841,5.0
1010,SURREY,144 ST & 176 ST & 176 ST OFFRAMP & 64 AVE,49.119128,-122.823275,8.0
1011,SURREY,148 ST & 64 AVE,49.11913,-122.812222,1.0
1012,SURREY,194 ST & 64 AVE,49.11915,-122.685386,1.0
1013,SURREY,126 ST & 64 AVE & PARK ACCESS ROAD,49.119187,-122.873394,2.0
1014,DELTA,109A ST & KITTSON PKY & LYON RD,49.119228,-122.919974,3.0
1015,SURREY,124 ST & 64 AVE,49.119235,-122.879036,5.0
1016,SURREY,121 ST & 64 AVE,49.119299,-122.887326,1.0
1017,DELTA,120 ST & 64 AVE,49.11933,-122.890416,9.0
1019,DELTA,64 AVE & WADE RD,49.119407,-122.895981,1.0
1020,DELTA,64 AVE & SUMMIT CRES,49.119464,-122.90147,1.0
1021,NANAIMO,EXTENSION RD & ROBERTA RD E,49.119637,-123.922793,1.0
1022,LANGLEY,65 AVE & WILLOWBROOK CONN,49.120152,-122.652265,2.0
1023,RICHMOND,ANDREWS RD & NO 2 RD,49.121855,-123.15888,2.0
1024,SURREY,185 ST & 65 AVE,49.121871,-122.709071,1.0
1025,SURREY,192 ST & 65 AVE,49.122158,-122.690924,1.0
1026,SURREY,188 ST & 66 AVE,49.122543,-122.701703,1.0
1027,LANGLEY,203 ST & 66 AVE,49.122599,-122.660019,2.0
1028,LANGLEY,201 ST & 66 AVE,49.122616,-122.665763,1.0
1029,LANGLEY,200 ST & 66 AVE & WILLOUGHBY WAY,49.122644,-122.668533,3.0
1030,CHILLIWACK,STEVENSON RD & WILTSHIRE ST,49.122796,-121.964086,1.0
1031,CHILLIWACK,STEVENSON RD & VEDDER RD,49.122805,-121.959838,1.0
1032,SURREY,128 ST & 66 AVE,49.122847,-122.867791,2.0
1033,SURREY,124 ST & 66 AVE,49.12291,-122.878988,1.0
1034,SURREY,122 ST & 66 AVE,49.122959,-122.884658,2.0
1035,DELTA,120 ST & 66 AVE,49.123004,-122.890373,2.0
1037,RICHMOND,HORSESHOE PL & HORSESHOE WAY,49.123303,-123.098922,1.0
1038,SURREY,152 ST & 66A AVE,49.123517,-122.801037,1.0
1039,SURREY,120 ST,49.123562,-122.890283,1.0
1040,SURREY,192 ST & 66 AVE & 66A AVE,49.123627,-122.690872,1.0
1041,SURREY,194 ST & 66 AVE,49.123698,-122.685339,1.0
1042,SURREY,188 ST & FRASER HWY & TURNING LANE,49.1237,-122.701718,3.0
1043,NANAIMO,CRANBERRY AVE & EXTENSION RD,49.123717,-123.920302,1.0
1044,LANGLEY,GLOVER RD & WORRELL CRES,49.123779,-122.62874,1.0
1045,RICHMOND,BAYVIEW ST & NO 1 RD,49.123966,-123.181188,1.0
1046,RICHMOND,MONCTON ST & NO 2 RD,49.124986,-123.158878,2.0
1047,SURREY,148 ST & 67A AVE,49.124992,-122.812202,1.0
1048,LANGLEY,196 ST,49.125023,-122.679811,1.0
1050,RICHMOND,MONCTON ST & RAILWAY AVE,49.125125,-123.169788,1.0
1051,RICHMOND,EASTHOPE AVE & MONCTON ST,49.125168,-123.178802,2.0
1052,CHILLIWACK,SUMAS PRAIRIE RD,49.125305,-122.045553,1.0
1053,SURREY,68 AVE & FRASER HWY & MALL ACCESS,49.125701,-122.706201,1.0
1054,SURREY,121 ST & 68 AVE,49.125897,-122.887555,1.0
1055,SURREY,184 ST & 68 AVE,49.125899,-122.712582,3.0
1056,SURREY,183 ST & 68 AVE,49.125922,-122.715377,1.0
1057,DELTA,LYON RD,49.126137,-122.899113,1.0
1058,SURREY,188 ST & 68 AVE,49.126148,-122.701692,2.0
1059,LANGLEY,202B ST & 203 ST & 68 AVE & TURNING LANE,49.126176,-122.660481,1.0
1060,SURREY,144 ST & 68 AVE,49.126204,-122.823309,3.0
1061,SURREY,68 AVE,49.126222,-122.822299,1.0
1062,SURREY,68 AVE & KING GEORGE BLVD & TURNING LANE,49.126227,-122.845525,7.0
1063,LANGLEY,200 ST & 68 AVE,49.126272,-122.668488,1.0
1064,SURREY,191 ST & 68 AVE,49.126334,-122.693684,1.0
1065,SURREY,68 AVE,49.126342,-122.680424,1.0
1066,SURREY,195A ST & 68 AVE,49.126347,-122.681129,1.0
1067,SURREY,152 ST & 68 AVE,49.126361,-122.801063,3.0
1068,SURREY,150 ST & 68 AVE,49.126376,-122.806582,2.0
1069,SURREY,192 ST & 68 AVE,49.126381,-122.690847,4.0
1070,SURREY,132 ST & 68 AVE,49.126405,-122.856599,4.0
1071,SURREY,148 ST & 68 AVE,49.126405,-122.812198,3.0
1072,RICHMOND,6TH AVE & CHATHAM ST,49.126422,-123.190304,1.0
1073,RICHMOND,2ND AVE & CHATHAM ST,49.126427,-123.184252,1.0
1074,SURREY,137A ST & 138 ST & 68 AVE & HYLAND RD,49.126435,-122.841571,5.0
1075,SURREY,130 ST & 68 AVE,49.126498,-122.862209,1.0
1076,SURREY,68 AVE & HELSTON CRES,49.126543,-122.86502,2.0
1077,SURREY,128 ST & 68 AVE,49.12659,-122.867795,5.0
1078,SURREY,126 ST & 68 AVE,49.126611,-122.873372,2.0
1079,SURREY,125 ST & 68 AVE,49.126643,-122.876219,1.0
1080,SURREY,124 ST & 68 AVE,49.126654,-122.879011,4.0
1081,DELTA,120 ST & 68 AVE,49.126719,-122.890371,4.0
1083,SURREY,144 ST & 68A AVE,49.127178,-122.823318,1.0
1084,RICHMOND,BROADWAY ST & NO 1 RD,49.127373,-123.181223,1.0
1085,SURREY,151A ST & 68A AVE,49.127376,-122.803181,2.0
1086,RICHMOND,KITTIWAKE DR & NO 2 RD,49.127774,-123.15889,1.0
1087,NANAIMO,CRANBERRY AVE & ISLAND HWY S & TURNING LANE,49.128033,-123.919577,1.0
1088,DELTA,CHATEAU WYND & NICHOLSON RD,49.128804,-122.893025,1.0
1089,DELTA,COMMONWEALTH CRES & LYON RD,49.128976,-122.906997,1.0
1090,SURREY,126 ST & 69A AVE,49.129069,-122.873417,1.0
1091,SURREY,124 ST & 69A AVE,49.12911,-122.879047,1.0
1092,RICHMOND,GARRY ST & NO 1 RD,49.12928,-123.181247,4.0
1093,RICHMOND,GARRY ST & RAILWAY AVE,49.129338,-123.16981,1.0
1094,LANGLEY,200 ST & 70 AVE,49.129877,-122.668381,2.0
1095,SURREY,138 ST & 70 AVE,49.129964,-122.838565,3.0
1096,SURREY,191 ST & 70 AVE,49.129984,-122.693249,1.0
1097,SURREY,70 AVE,49.130013,-122.691113,1.0
1098,SURREY,142 ST & 70 AVE,49.130049,-122.828872,1.0
1099,SURREY,149 ST & 70 AVE,49.130148,-122.808755,1.0
1100,DELTA,70 AVE & NICHOLSON RD,49.130348,-122.893617,2.0
1101,DELTA,120 ST & 70 AVE,49.130361,-122.890372,3.0
1103,SURREY,182 ST & FRASER HWY,49.130597,-122.717736,2.0
1104,CHILLIWACK,EVANS RD,49.130602,-121.977544,1.0
1105,NANAIMO,FRONTAGE RD & ISLAND HWY S & MAKI RD & TENTH ST & TURNING LANE,49.130747,-123.921421,1.0
1106,NANAIMO,LAWLOR RD & TENTH ST,49.13089,-123.923886,3.0
1107,SURREY,144 ST & 70A AVE,49.130907,-122.82336,1.0
1108,SURREY,151 ST & 70A AVE,49.130982,-122.803714,1.0
1109,RICHMOND,4TH AVE & PLEASANT ST,49.131119,-123.187157,2.0
1110,SURREY,133 ST & 70B AVE,49.131179,-122.854169,1.0
1111,SURREY,130 ST & 70B AVE & LINTON WAY,49.131199,-122.862276,2.0
1112,SURREY,138 ST & 71 AVE,49.131335,-122.838671,1.0
1113,DELTA,NICHOLSON RD,49.132192,-122.893633,1.0
1114,SURREY,71 AVE,49.132208,-122.810555,1.0
1115,SURREY,140 ST & 71A AVE,49.132245,-122.834442,1.0
1116,DELTA,120 ST & MALL ACCESS,49.13252,-122.890367,1.0
1118,MISSION,CEDAR VALLEY CONN & HWY 11 & LOUGHEED HWY & TURNING LANE,49.132934,-122.32613,3.0
1119,MISSION,HAIG ST & LOUGHEED HWY & MALL ACCESS,49.132953,-122.322565,2.0
1120,MISSION,HURD ST & LOUGHEED HWY & RAI AVE,49.132955,-122.329109,1.0
1121,MISSION,LOUGHEED HWY & PARK ST & MALL ACCESS,49.132977,-122.319506,4.0
1122,SURREY,148 ST & 71A AVE,49.132979,-122.812152,1.0
1123,MISSION,LOUGHEED HWY,49.133003,-122.324039,1.0
1124,MISSION,LOUGHEED HWY,49.133021,-122.331338,1.0
1125,MISSION,LOUGHEED HWY & OLIVER ST,49.133194,-122.34188,1.0
1126,SURREY,SCOTT RD,49.13326,-122.890296,1.0
1127,RICHMOND,NO 5 RD & STEVESTON HWY,49.133365,-123.092135,3.0
1128,RICHMOND,SHELL RD & STEVESTON HWY,49.133385,-123.103242,2.0
1129,RICHMOND,STEVESTON HWY & SWINTON CRES,49.133439,-123.110972,1.0
1130,RICHMOND,NO 4 RD & STEVESTON HWY,49.133451,-123.114284,3.0
1131,LANGLEY,202A ST & 202B ST & 72 AVE,49.13346,-122.661434,1.0
1132,RICHMOND,SOUTHRIDGE RD & STEVESTON HWY,49.133462,-123.117847,1.0
1133,SURREY,136B ST & 72 AVE,49.13351,-122.843537,1.0
1134,RICHMOND,GILBERT RD & STEVESTON HWY,49.133513,-123.147802,2.0
1135,LANGLEY,200 ST & 72 AVE,49.13352,-122.668321,8.0
1136,RICHMOND,NO 3 RD & STEVESTON HWY,49.133523,-123.136584,1.0
1137,SURREY,72 AVE & HALL RD,49.133537,-122.848433,2.0
1138,LANGLEY,202A ST & 72 AVE,49.133539,-122.661294,1.0
1139,SURREY,137 ST & 72 AVE,49.133543,-122.8428,13.0
1140,LANGLEY,201 ST & 72 AVE,49.133551,-122.664589,1.0
1141,SURREY,72 AVE & KING GEORGE BLVD & TURNING LANE,49.133554,-122.845583,11.0
1142,SURREY,138 ST & 72 AVE,49.133576,-122.838651,9.0
1143,SURREY,190 ST & 72 AVE,49.133589,-122.69621,1.0
1144,LANGLEY,196 ST & 72 AVE,49.133605,-122.67955,1.0
1145,SURREY,140 ST & 72 AVE,49.133605,-122.834459,8.0
1147,SURREY,134 ST & 72 AVE & COMBER WAY,49.133611,-122.851123,3.0
1148,SURREY,141A ST & 72 AVE,49.133654,-122.83025,3.0
1149,SURREY,152 ST & 72 AVE,49.133661,-122.801101,3.0
1150,SURREY,192 ST & 72 AVE,49.133663,-122.690779,3.0
1151,SURREY,142 ST & 72 AVE,49.133679,-122.82893,4.0
1152,SURREY,132 ST & 72 AVE,49.1337,-122.856661,2.0
1153,SURREY,146 ST & 72 AVE,49.133725,-122.817858,1.0
1154,SURREY,144 ST & 72 AVE,49.133735,-122.823337,7.0
1155,SURREY,148 ST & 72 AVE,49.133742,-122.812146,3.0
1156,RICHMOND,STEVESTON HWY & TRIMARAN GATE,49.133749,-123.173631,1.0
1157,MISSION,HAIG ST & LOGAN AVE,49.13375,-122.322558,1.0
1158,RICHMOND,NO 1 RD & STEVESTON HWY,49.133761,-123.181304,5.0
1159,MISSION,LOGAN AVE & PARK ST,49.133768,-122.31952,1.0
1160,SURREY,130 ST & 72 AVE,49.133808,-122.862312,6.0
1161,MISSION,HORNE ST & N RAILWAY AVE,49.133832,-122.302279,1.0
1162,DELTA,112 ST & 72 AVE,49.13386,-122.91264,2.0
1163,SURREY,128 ST & 72 AVE,49.13388,-122.867854,7.0
1164,SURREY,127A ST & 72 AVE,49.133888,-122.869474,1.0
1165,DELTA,113 ST & 72 AVE,49.133905,-122.908397,1.0
1166,SURREY,126 ST & 72 AVE,49.133915,-122.873417,5.0
1167,SURREY,124 ST & 72 AVE,49.133924,-122.879111,9.0
1168,DELTA,115 ST & 72 AVE,49.13393,-122.904184,2.0
1169,SURREY,125 ST & 72 AVE,49.133957,-122.876242,2.0
1170,DELTA,116 ST & 72 AVE,49.133961,-122.900947,3.0
1171,SURREY,122 ST & 72 AVE,49.133997,-122.884833,9.0
1172,SURREY,121 ST & 72 AVE,49.134018,-122.887572,4.0
1173,DELTA,72 AVE & NICHOLSON RD,49.134036,-122.893649,6.0
1174,DELTA,120 ST & 72 AVE,49.134037,-122.890359,21.0
1176,MISSION,1ST AVE & WELTON ST,49.134396,-122.304804,2.0
1177,MISSION,1ST AVE,49.134405,-122.305983,1.0
1178,SURREY,193 ST & 72A AVE,49.134425,-122.687607,1.0
1179,SURREY,138 ST & 72A AVE,49.134604,-122.838657,2.0
1180,SURREY,144 ST & 72A AVE,49.134648,-122.823345,1.0
1181,CHILLIWACK,VEDDER RD & WEBB AVE,49.134718,-121.959719,1.0
1182,CHILLIWACK,MEADOWLARK ST & WELLS RD,49.134827,-121.97511,1.0
1183,NANAIMO,HAREWOOD MINES RD & RIMROCK TRAIL,49.134839,-123.967611,1.0
1184,DELTA,118 ST & 72A AVE,49.13489,-122.895987,1.0
1185,SURREY,137 ST & 72A AVE,49.134934,-122.842782,1.0
1186,SURREY,142 ST & 72A AVE,49.135052,-122.828794,1.0
1187,SURREY,124A ST,49.135093,-122.877571,1.0
1188,SURREY,73 AVE & KING GEORGE BLVD,49.135099,-122.845596,1.0
1189,RICHMOND,NO 3 RD & ROSEWELL AVE,49.135354,-123.136657,1.0
1190,SURREY,131 ST & 73 AVE,49.135574,-122.859531,1.0
1191,SURREY,129B ST & 73 AVE,49.135594,-122.863359,1.0
1192,SURREY,123 ST,49.135613,-122.881293,1.0
1193,SURREY,124 ST & 73 AVE,49.135649,-122.879095,1.0
1194,LANGLEY,199A ST & 73A AVE,49.135663,-122.669708,1.0
1195,LANGLEY,208 ST,49.13584,-122.645915,1.0
1196,MISSION,3RD AVE & JAMES ST,49.136235,-122.307156,1.0
1197,MISSION,3RD AVE & ALDER ST,49.136248,-122.313371,1.0
1198,DELTA,116 ST & 73A AVE,49.136311,-122.901419,1.0
1199,DELTA,PROGRESS PL & PROGRESS WAY,49.136321,-123.010723,1.0
1200,CHILLIWACK,GAETZ ST & STOREY AVE & VEDDER RD,49.136355,-121.958974,1.0
1201,MISSION,HILLCREST AVE & WREN ST,49.136462,-122.338291,1.0
1202,RICHMOND,HOLLYMOUNT GATE & RAILWAY AVE,49.136774,-123.169821,1.0
1203,RICHMOND,GOLDSTREAM DR & TWEEDSMUIR AVE,49.136858,-123.138283,1.0
1204,MISSION,BUECKERT AVE & DIAMOND AVE & HURD ST,49.136946,-122.332705,1.0
1205,SURREY,184 ST & 74 AVE,49.136961,-122.71247,1.0
1206,SURREY,74 AVE & KING GEORGE BLVD,49.13718,-122.845616,1.0
1207,SURREY,137 ST & 74 AVE,49.137186,-122.842828,1.0
1208,SURREY,138 ST & 74 AVE,49.137218,-122.838681,7.0
1209,SURREY,140 ST & 74 AVE,49.137273,-122.834495,2.0
1210,RICHMOND,4TH AVE & SPRINGFIELD DR,49.137278,-123.186941,1.0
1211,SURREY,192 ST & 74 AVE,49.137286,-122.69075,1.0
1212,SURREY,144 ST & 74 AVE,49.137345,-122.823359,1.0
1213,SURREY,128 ST & 74 AVE,49.137426,-122.867873,1.0
1214,RICHMOND,MORTFIELD RD & NO 4 RD & WILKINSON RD,49.137554,-123.114189,1.0
1215,CHILLIWACK,ARCHIE MEADOW RD & CHILLIWACK RIVER RD,49.137573,-121.948156,1.0
1216,SURREY,121A ST & 122 ST & MALL ACCESS,49.137898,-122.885023,1.0
1217,NANAIMO,BRAMBLEWOOD LANE & MULBERRY DR,49.137911,-123.948929,1.0
1218,CHILLIWACK,HURON ST & KNIGHT RD,49.138021,-121.961122,1.0
1219,CHILLIWACK,KNIGHT RD & VEDDER RD,49.13806,-121.958738,4.0
1220,SURREY,176 ST & FRASER HWY & HARVIE RD & TURNING LANE,49.138147,-122.734746,1.0
1221,RICHMOND,LEONARD RD & RYAN RD,49.13815,-123.13347,1.0
1222,LANGLEY,208 ST & 74B AVE,49.138295,-122.645886,1.0
1223,LANGLEY,202A ST & 74B AVE,49.138394,-122.661521,1.0
1224,SURREY,124 ST & 75 AVE,49.139298,-122.879033,1.0
1225,SURREY,122 ST & 75 AVE,49.139402,-122.884438,2.0
1226,SURREY,121A ST & 75 AVE,49.13943,-122.885725,1.0
1227,LANGLEY,75A AVE,49.139468,-122.67057,1.0
1228,RICHMOND,GILBERT RD & PETTS RD,49.139572,-123.147859,1.0
1229,CHILLIWACK,KNIGHT RD & TOPAZ DR,49.139719,-121.966666,2.0
1230,MISSION,7TH AVE & STAVE LAKE ST,49.139815,-122.292765,2.0
1231,MISSION,7TH AVE & COLUMBIA ST,49.13982,-122.297419,1.0
1232,MISSION,7TH AVE & MURRAY ST,49.139827,-122.299845,1.0
1233,MISSION,7TH AVE & TAULBUT ST,49.139839,-122.305612,1.0
1234,MISSION,7TH AVE & WELTON ST,49.13984,-122.304772,2.0
1235,RICHMOND,DENNIS PL & NO 4 RD,49.139913,-123.114146,1.0
1236,CHILLIWACK,EVANS RD & KNIGHT RD,49.139979,-121.977616,1.0
1237,MISSION,7TH AVE & GRAND ST,49.140168,-122.3095,3.0
1238,DELTA,119A ST & 75A AVE,49.140173,-122.891427,1.0
1239,DELTA,120 ST & 75A AVE,49.140178,-122.890375,5.0
1241,MISSION,7TH AVE & ALDER ST,49.140192,-122.31333,1.0
1242,MISSION,7TH AVE & LEE ST,49.140204,-122.328911,2.0
1243,MISSION,7TH AVE & HURD ST,49.140206,-122.332915,4.0
1244,MISSION,7TH AVE & CEDAR ST,49.14022,-122.316423,5.0
1245,RICHMOND,NO 5 RD & WILLIAMS RD,49.140668,-123.091732,4.0
1246,RICHMOND,SHELL RD & WILLIAMS RD,49.140699,-123.102989,2.0
1247,RICHMOND,AQUILA RD & WILLIAMS RD,49.140716,-123.109147,1.0
1248,RICHMOND,NO 4 RD & WILLIAMS RD,49.140733,-123.114143,2.0
1249,RICHMOND,ASH ST & WILLIAMS RD,49.140789,-123.119764,1.0
1250,RICHMOND,GARDEN CITY RD & WILLIAMS RD,49.140841,-123.125243,5.0
1251,SURREY,76 AVE & KING GEORGE BLVD & TURNING LANE,49.140852,-122.845634,6.0
1252,SURREY,135 ST & 76 AVE,49.140877,-122.848446,1.0
1253,CHILLIWACK,LUCKAKUCK WAY & TOPAZ DR,49.14088,-121.966623,2.0
1254,RICHMOND,NO 3 RD & WILLIAMS RD,49.140885,-123.136704,2.0
1255,RICHMOND,GILBERT RD & WILLIAMS RD,49.140952,-123.147871,1.0
1256,SURREY,144 ST & 76 AVE,49.141001,-122.823397,1.0
1257,RICHMOND,NO 2 RD & WILLIAMS RD,49.141005,-123.158965,2.0
1258,RICHMOND,HOLLYCROFT GATE & WILLIAMS RD,49.141018,-123.166562,1.0
1259,RICHMOND,RAILWAY AVE & WILLIAMS RD,49.141022,-123.169818,4.0
1260,SURREY,128 ST & 76 AVE,49.141025,-122.867918,5.0
1261,SURREY,76 AVE,49.14103,-122.814535,1.0
1262,RICHMOND,NO 1 RD & WILLIAMS RD,49.141033,-123.181365,2.0
1263,SURREY,147A ST & 76 AVE,49.141035,-122.81385,2.0
1264,SURREY,148 ST & 76 AVE,49.141048,-122.812243,1.0
1265,SURREY,124 ST & 76 AVE,49.141066,-122.879021,1.0
1266,SURREY,151A ST & 76 AVE,49.141066,-122.80259,1.0
1267,SURREY,152 ST & 76 AVE,49.141067,-122.801111,1.0
1268,SURREY,122 ST & 76 AVE,49.141198,-122.88464,1.0
1269,SURREY,120A ST & 76 AVE,49.141308,-122.888899,1.0
1270,CHILLIWACK,INDUSTRIAL WAY & OLD ORCHARD RD,49.141545,-122.0401,1.0
1271,RICHMOND,ALBION RD & NO 4 RD,49.141632,-123.114132,1.0
1272,LANGLEY,202A ST,49.141937,-122.661469,1.0
1273,CHILLIWACK,LUCKAKUCK WAY,49.142237,-121.968027,1.0
1274,SURREY,145 ST & 76A AVE,49.142293,-122.820735,1.0
1275,DELTA,120 ST & 76A AVE,49.142295,-122.890367,4.0
1277,SURREY,144A ST & 76A AVE,49.142309,-122.822013,1.0
1278,SURREY,140 ST & 77 AVE,49.142738,-122.834534,5.0
1279,MISSION,10TH AVE & CEDAR ST,49.14278,-122.316288,1.0
1280,RICHMOND,NO 4 RD & SAUNDERS RD,49.143095,-123.114131,1.0
1281,CHILLIWACK,LUCKAKUCK WAY,49.143226,-121.957746,1.0
1282,SURREY,140 ST & 77A AVE,49.143639,-122.834537,1.0
1283,MISSION,CEDAR ST & MCRAE AVE,49.143811,-122.316228,2.0
1284,MISSION,HURD ST & MCRAE AVE,49.143842,-122.332943,2.0
1285,RICHMOND,NO 2 RD & WOODWARDS RD,49.143915,-123.158971,1.0
1286,RICHMOND,RAILWAY AVE & WOODWARDS RD,49.143918,-123.16981,1.0
1287,RICHMOND,NO 1 RD & PENDLEBURY RD,49.144248,-123.181351,1.0
1288,RICHMOND,KING RD & KINGCOME AVE & SHELL RD,49.144324,-123.102277,1.0
1289,SURREY,144 ST & 78 AVE,49.144393,-122.823415,1.0
1290,DELTA,118 ST & 77B AVE,49.144435,-122.895866,1.0
1291,MISSION,LOUGHEED HWY & MANSON ST,49.144458,-122.268564,1.0
1292,DELTA,112 ST & MONROE DR,49.144497,-122.912598,2.0
1293,SURREY,168 ST & 78 AVE,49.144504,-122.756566,2.0
1294,SURREY,124 ST & 78 AVE,49.144689,-122.879066,2.0
1295,SURREY,123 ST & 78 AVE,49.144699,-122.881861,1.0
1296,SURREY,128 ST & 78 AVE & ANVIL WAY,49.144717,-122.867915,1.0
1297,SURREY,122 ST & 78 AVE,49.144747,-122.884665,1.0
1298,CHILLIWACK,TRANS-CANADA HWY & VEDDER RD & VEDDER RD OFFRAMP & VEDDER RD ONRAMP,49.144793,-121.962073,2.0
1299,DELTA,80 ST & HUSTON RD & RIVER WAY,49.14485,-123.001594,1.0
1300,CHILLIWACK,EVANS RD & YALE RD,49.145179,-121.977627,3.0
1301,SURREY,140 ST & 78A AVE,49.145422,-122.834549,1.0
1302,RICHMOND,GARDEN CITY RD & GLENALLAN GATE,49.145524,-123.125123,1.0
1303,RICHMOND,NO 1 RD & OSMOND AVE,49.145896,-123.181343,1.0
1304,RICHMOND,BROADMOOR BLVD & NO 3 RD,49.145965,-123.136682,1.0
1305,SURREY,170A ST & 79A AVE,49.146299,-122.751356,1.0
1306,SURREY,132A ST & 79 AVE,49.146304,-122.85551,1.0
1307,DELTA,ALEXANDER RD & RIVER WAY,49.146427,-122.99178,1.0
1308,SURREY,123A ST,49.146554,-122.880478,1.0
1309,RICHMOND,ARVIDA GATE & NO 4 RD,49.146564,-123.114172,1.0
1310,CHILLIWACK,INDUSTRIAL WAY & LICKMAN RD & YALE RD,49.146628,-122.006926,1.0
1311,RICHMOND,MAPLE RD & RAILWAY AVE,49.1468,-123.169814,1.0
1312,MISSION,14TH AVE & HORNE ST,49.147351,-122.3024,2.0
1313,MISSION,14TH AVE & EAGLE CRES,49.147467,-122.334361,1.0
1314,NANAIMO,BRUCE AVE & SEVENTH ST,49.147548,-123.949632,1.0
1315,DELTA,109A ST & 79A AVE,49.147702,-122.920129,1.0
1316,SURREY,80 AVE & HARVIE RD,49.147959,-122.720075,1.0
1317,SURREY,168 ST & FRASER HWY & TURNING LANE,49.147961,-122.756454,3.0
1318,LANGLEY,80 AVE,49.147969,-122.644501,1.0
1319,LANGLEY,208 ST & 80 AVE,49.148012,-122.645743,1.0
1320,LANGLEY,207 ST & 80 AVE,49.148042,-122.648694,1.0
1321,LANGLEY,206A ST & 80 AVE,49.14805,-122.649486,1.0
1322,LANGLEY,204 ST & 80 AVE,49.148125,-122.656964,1.0
1323,SURREY,128 ST & 80 AVE,49.148132,-122.867974,3.0
1324,SURREY,80 AVE & KING GEORGE BLVD & TURNING LANE,49.14815,-122.845687,6.0
1325,SURREY,192 ST & 80 AVE,49.148163,-122.690723,1.0
1326,SURREY,132 ST & 80 AVE,49.148165,-122.856771,1.0
1327,SURREY,140 ST & 80 AVE,49.148199,-122.834565,2.0
1328,RICHMOND,FRANCIS RD & GARDEN CITY RD,49.148201,-123.125163,1.0
1329,SURREY,164 ST & 80 AVE,49.148223,-122.767688,1.0
1330,SURREY,156 ST & 80 AVE,49.148236,-122.790083,1.0
1331,SURREY,126A ST & 80 AVE,49.148237,-122.872131,1.0
1332,SURREY,160 ST & 80 AVE,49.148256,-122.778843,2.0
1333,RICHMOND,FRANCIS RD & RIDEAU GATE,49.148259,-123.134571,1.0
1334,RICHMOND,FRANCIS RD & NO 3 RD,49.148285,-123.136673,2.0
1335,RICHMOND,FRANCIS RD & GILBERT RD,49.148298,-123.147831,1.0
1336,RICHMOND,FRANCIS RD & NO 1 RD,49.148331,-123.18133,3.0
1337,RICHMOND,FRANCIS RD & NO 2 RD,49.148344,-123.158969,1.0
1338,RICHMOND,FRANCIS RD & RAILWAY AVE,49.148393,-123.169815,2.0
1339,SURREY,124 ST & 80 AVE,49.148408,-122.879104,1.0
1340,SURREY,123 ST & 80 AVE,49.148447,-122.881856,1.0
1341,SURREY,121A ST & 80 AVE,49.14854,-122.886677,1.0
1342,SURREY,120A ST & 80 AVE,49.14857,-122.888155,6.0
1343,DELTA,120 ST & 80 AVE,49.1486,-122.890378,8.0
1345,DELTA,116 ST & 80 AVE,49.148612,-122.901433,8.0
1346,DELTA,112 ST & 80 AVE,49.148641,-122.91253,5.0
1347,TOFINO,CAMPBELL ST & OLSEN RD,49.1489,-125.893169,1.0
1348,SURREY,168 ST & 80 AVE,49.149295,-122.756225,1.0
1349,MISSION,MANSON ST & VOSBURGH AVE,49.150005,-122.267141,1.0
1350,SURREY,81 AVE & KING GEORGE BLVD,49.150049,-122.845694,2.0
1351,SURREY,134 ST & 81 AVE,49.150059,-122.851343,1.0
1352,SURREY,132 ST & 81 AVE,49.150081,-122.856783,1.0
1353,SURREY,152 FRTG & 152 ST & 81 AVE,49.150107,-122.801258,2.0
1354,SURREY,128 ST & 82 AVE & TURNING LANE,49.150255,-122.867964,1.0
1355,DELTA,114 ST & 81 AVE,49.15042,-122.906983,1.0
1356,CHILLIWACK,YALE RD,49.150446,-121.964213,1.0
1357,SURREY,146 ST & 81A AVE,49.15072,-122.817622,1.0
1358,SURREY,166 ST & FRASER HWY & TURNING LANE,49.150766,-122.762088,1.0
1359,MISSION,BEST AVE & CADE BARR ST,49.15079,-122.301431,2.0
1360,MISSION,BEST AVE & CEDAR ST,49.151007,-122.316033,1.0
1361,MISSION,BEST AVE & BOBCAT DR & MILLER CRES,49.151052,-122.325262,1.0
1362,SURREY,140 ST & BEAR CREEK DR,49.151054,-122.834584,1.0
1363,LANGLEY,208 ST & 82 AVE,49.151613,-122.645764,2.0
1364,LANGLEY,204 ST & 82 AVE,49.151782,-122.657031,1.0
1365,SURREY,158 ST & 82 AVE,49.151807,-122.784446,1.0
1366,SURREY,160 ST & 82 AVE,49.151821,-122.77889,1.0
1367,SURREY,164 ST & 82 AVE,49.151829,-122.767766,2.0
1368,RICHMOND,DAYTON AVE & GARDEN CITY RD,49.151852,-123.12525,2.0
1369,SURREY,152 ST & 82 AVE,49.151901,-122.801309,1.0
1370,SURREY,124 ST & 82 AVE,49.152021,-122.879101,1.0
1371,RICHMOND,FAIRBROOK CRES & FAIRHURST RD,49.152125,-123.189834,1.0
1372,SURREY,121A ST & 82 AVE,49.152213,-122.886705,2.0
1373,DELTA,116 ST & 82 AVE,49.152217,-122.901477,1.0
1374,SURREY,120A ST & 82 AVE,49.152226,-122.888541,1.0
1375,DELTA,112 ST & 82 AVE,49.152231,-122.912455,2.0
1376,DELTA,111B ST & 82 AVE,49.152239,-122.913562,1.0
1377,DELTA,120 ST & 82 AVE,49.152259,-122.890381,4.0
1379,SURREY,140 ST & 82 AVE,49.152269,-122.834535,1.0
1380,TOFINO,CAMPBELL ST & FOURTH ST,49.152415,-125.902653,1.0
1381,SURREY,KING GEORGE BLVD,49.152539,-122.84561,1.0
1382,SURREY,128 ST,49.152801,-122.867944,1.0
1383,SURREY,164 ST & FRASER HWY & TURNING LANE,49.152981,-122.767763,4.0
1384,SURREY,146 ST & 82A AVE,49.153069,-122.817572,2.0
1385,NANAIMO,HALIBURTON ST,49.153893,-123.93247,1.0
1386,SURREY,120 ST,49.154115,-122.890319,1.0
1387,DELTA,112 ST & 83 AVE,49.15427,-122.912395,1.0
1388,SURREY,KING GEORGE BLVD,49.154436,-122.845835,1.0
1389,MISSION,CEDAR ST & CHERRY AVE,49.154641,-122.316013,4.0
1390,CHILLIWACK,AIRPORT RD & YOUNG RD,49.154765,-121.951386,2.0
1391,NANAIMO,BRUCE AVE & FIFTH ST,49.155136,-123.94956,4.0
1392,NANAIMO,CALVERLEY AVE & FIFTH ST,49.15515,-123.953827,1.0
1393,NANAIMO,FIFTH ST & WAKESIAH AVE,49.155188,-123.961107,1.0
1394,NANAIMO,FIFTH ST & VIEW ST,49.155189,-123.937296,1.0
1395,CHILLIWACK,PREST RD & PREST RD OFFRAMP & PREST RD ONRAMP & TRANS-CANADA HWY,49.155256,-121.918204,1.0
1396,SURREY,128 ST & 84 AVE,49.15535,-122.868017,4.0
1397,SURREY,132 ST & 84 AVE,49.155419,-122.856827,3.0
1398,SURREY,158 ST & 84 AVE & VENTURE WAY,49.155422,-122.784423,3.0
1399,LANGLEY,208 ST & 84 AVE,49.155434,-122.645753,1.0
1400,SURREY,159 ST & 84 AVE,49.15546,-122.781598,1.0
1401,RICHMOND,BLUNDELL RD & GARDEN CITY RD,49.155464,-123.125339,6.0
1402,RICHMOND,BLUNDELL RD & HEATHER ST,49.155467,-123.122555,1.0
1403,SURREY,164 ST & 84 AVE,49.155467,-122.76779,1.0
1404,SURREY,168 ST & 84 AVE,49.155483,-122.756657,1.0
1405,SURREY,156 ST & 84 AVE,49.155496,-122.790141,2.0
1406,LANGLEY,206 ST & 84 AVE,49.155503,-122.651429,1.0
1407,SURREY,148 ST & 84 AVE,49.155513,-122.812426,1.0
1408,SURREY,140 ST & 84 AVE,49.155514,-122.834619,3.0
1409,RICHMOND,BLUNDELL RD & ST ALBANS RD,49.155529,-123.13095,4.0
1410,SURREY,152 ST & 84 AVE,49.155532,-122.801422,4.0
1411,SURREY,143 ST & 84 AVE,49.155537,-122.826243,1.0
1412,SURREY,84 AVE,49.155543,-122.824063,1.0
1413,SURREY,144 ST & 84 AVE,49.155548,-122.823347,3.0
1414,RICHMOND,BLUNDELL RD,49.155554,-123.133798,1.0
1415,RICHMOND,BLUNDELL RD & NO 2 RD,49.155579,-123.15893,1.0
1416,RICHMOND,BLUNDELL RD & NO 3 RD,49.155579,-123.136646,3.0
1417,LANGLEY,200 ST & 84 AVE,49.155594,-122.668047,1.0
1418,RICHMOND,BLUNDELL RD,49.155594,-123.148859,1.0
1419,RICHMOND,BLUNDELL RD & CHEVIOT PL,49.155594,-123.156155,1.0
1420,RICHMOND,BLUNDELL RD & GILBERT RD,49.155594,-123.1478,3.0
1421,RICHMOND,BLUNDELL RD & MINLER RD,49.155594,-123.149918,1.0
1422,RICHMOND,BLUNDELL RD & MINORU BLVD,49.155611,-123.140343,1.0
1423,RICHMOND,BLUNDELL RD & RAILWAY AVE,49.155611,-123.169835,4.0
1424,RICHMOND,BLUNDELL RD & WILLOWFIELD DR,49.155648,-123.173335,1.0
1425,RICHMOND,BLUNDELL RD & DALEMORE RD,49.15565,-123.187612,1.0
1426,RICHMOND,BLUNDELL RD & EPERSON RD,49.155651,-123.174811,1.0
1427,RICHMOND,BLUNDELL RD & NO 1 RD,49.155663,-123.181077,4.0
1428,SURREY,124 ST & 84 AVE,49.155716,-122.879119,1.0
1429,SURREY,84 AVE & FRASER HWY,49.155727,-122.774736,1.0
1430,DEWDNEY,LOUGHEED HWY & MCKAMIE RD & SYLVESTER RD,49.155795,-122.209737,1.0
1432,DELTA,116 ST & 84 AVE,49.155908,-122.901523,3.0
1433,DELTA,120 ST & 84 AVE,49.155982,-122.890393,10.0
1435,DELTA,112 ST & 84 AVE,49.156046,-122.912377,5.0
1436,DELTA,110 ST & 84 AVE,49.156051,-122.918041,4.0
1437,CHILLIWACK,AIRPORT RD & CESSNA DR,49.156316,-121.940259,1.0
1438,DELTA,115 ST & 84A AVE,49.156641,-122.90398,1.0
1439,NANAIMO,ALBION ST & BRUCE AVE,49.157047,-123.949542,2.0
1440,RICHMOND,GARDEN CITY RD & JONES RD,49.15733,-123.125364,2.0
1441,SURREY,160 ST & FRASER HWY & TURNING LANE,49.15734,-122.778895,9.0
1442,DELTA,116 ST & 84B AVE,49.157356,-122.901929,1.0
1443,SURREY,162 ST & 85 AVE,49.157366,-122.773293,1.0
1444,DELTA,120 ST & 85 AVE,49.157419,-122.890372,1.0
1446,SURREY,128 ST & 85 AVE & UTILITY ACCESS ROAD,49.157419,-122.868022,1.0
1447,RICHMOND,JONES RD & NO 3 RD,49.157437,-123.136617,1.0
1448,RICHMOND,CHELSEA PL & CHELSEA RD,49.157637,-123.155409,1.0
1449,LANGLEY,206 ST & 85 AVE & 86 AVE,49.157818,-122.6514,1.0
1450,NANAIMO,MILTON ST & NICOL ST,49.15796,-123.934084,4.0
1451,CHILLIWACK,HOCKING AVE & SOUTHLANDS DR & YOUNG RD,49.158242,-121.952297,2.0
1452,CHILLIWACK,EAGLE LANDING PKY & EVANS RD,49.158255,-121.975636,1.0
1453,MISSION,CEDAR ST & EGGLESTONE AVE,49.158258,-122.31605,2.0
1454,MISSION,DALKE AVE & EGGLESTONE AVE & NOTTMAN ST,49.158282,-122.307802,1.0
1455,SURREY,140 ST & 85 AVE,49.158532,-122.834642,1.0
1456,SURREY,159 ST & FRASER HWY & VENTURE WAY,49.158643,-122.782191,6.0
1457,NANAIMO,BRUCE AVE & FOURTH ST,49.158936,-123.94952,1.0
1458,SURREY,128 ST & 86 AVE,49.158947,-122.868015,2.0
1459,SURREY,160 ST & 86 AVE,49.159085,-122.778915,1.0
1460,CHILLIWACK,HOCKING AVE & YALE RD,49.159091,-121.958646,5.0
1461,RICHMOND,GARDEN CITY RD & GENERAL CURRIE RD,49.159122,-123.125413,1.0
1462,RICHMOND,GENERAL CURRIE RD & ST ALBANS RD,49.159185,-123.130962,1.0
1463,LANGLEY,200 ST & 86 AVE & TURNING LANE,49.159194,-122.667905,1.0
1464,SURREY,120 ST,49.159198,-122.890253,1.0
1465,RICHMOND,BLUNDELL RD & NELSON RD,49.159462,-123.012847,2.0
1466,DELTA,116 ST & 86 AVE,49.159564,-122.902143,2.0
1467,DELTA,120 ST & 86 AVE,49.159584,-122.890346,4.0
1469,DELTA,112 ST & 86 AVE,49.159662,-122.912377,1.0
1470,NANAIMO,FINLAYSON ST & HALIBURTON ST,49.159908,-123.932775,1.0
1471,NANAIMO,FINLAYSON ST & IRWIN ST,49.159942,-123.931417,1.0
1472,RICHMOND,LINFIELD GATE & RAILWAY AVE,49.160277,-123.16983,1.0
1473,NANAIMO,SELBY ST & VICTORIA RD,49.160302,-123.935021,1.0
1474,SURREY,120 ST,49.160781,-122.890248,1.0
1475,RICHMOND,BENNETT RD & GARDEN CITY RD,49.16084,-123.125396,1.0
1476,NANAIMO,FOSTER ST & WAKESIAH AVE,49.160848,-123.961099,1.0
1477,RICHMOND,BENNETT RD & ST ALBANS RD,49.160894,-123.13098,3.0
1478,LANGLEY,208 ST & 87 AVE & TURNING LANE,49.160922,-122.645756,3.0
1479,RICHMOND,BENNETT RD & NO 3 RD,49.160971,-123.136579,7.0
1480,RICHMOND,COMSTOCK RD & GILBERT RD,49.161093,-123.147789,1.0
1481,LANGLEY,200 ST ONRAMP & 201 ST & 88 AVE,49.161672,-122.665961,1.0
1482,RICHMOND,HEATHER ST & SILLS AVE,49.161706,-123.122663,1.0
1483,KITCHENER,HWY 3 & KID CREEK FSR,49.161741,-116.286011,1.0
1484,SURREY,156 ST & FRASER HWY & TURNING LANE,49.161746,-122.790201,4.0
1485,RICHMOND,GILBERT RD,49.161885,-123.14778,1.0
1486,CHILLIWACK,CHILLIWACK CENTRAL RD & ROWAT AVE & YOUNG RD,49.161913,-121.952544,1.0
1487,CHILLIWACK,CHILLIWACK CENTRAL RD & PREST RD,49.161918,-121.918018,1.0
1488,LANGLEY,216 ST & 88 AVE & TURNING LANE,49.161922,-122.62409,1.0
1489,CHILLIWACK,CHILLIWACK CENTRAL RD & NOWELL ST,49.161924,-121.948865,1.0
1490,CHILLIWACK,CHILLIWACK CENTRAL RD & WALTERS ST,49.161946,-121.938135,1.0
1491,DELTA,120 ST & NORDEL WAY,49.162019,-122.890338,9.0
1493,SURREY,134 ST & 87B AVE,49.16213,-122.851077,1.0
1494,LANGLEY,212 ST & 88 AVE & TURNING LANE,49.162247,-122.632844,4.0
1495,LANGLEY,211B ST & 88 AVE,49.162367,-122.634947,1.0
1496,LANGLEY,210 ST & 88 AVE,49.162424,-122.637748,1.0
1497,NANAIMO,BRUCE AVE & PINE ST,49.162498,-123.949589,1.0
1498,LANGLEY,88 AVE & WALNUT GROVE DR & TURNING LANE,49.16253,-122.64036,4.0
1499,SURREY,128 ST & 88 AVE,49.162579,-122.868019,2.0
1500,SURREY,129 ST & 88 AVE,49.162584,-122.865325,2.0
1501,SURREY,88 AVE,49.162628,-122.858453,1.0
1502,SURREY,132 ST & 88 AVE,49.162634,-122.856917,1.0
1503,RICHMOND,COONEY RD & GRANVILLE AVE & ST ALBANS RD,49.162722,-123.131003,5.0
1504,RICHMOND,BUSWELL ST & GRANVILLE AVE,49.162724,-123.133733,1.0
1505,RICHMOND,GRANVILLE AVE & NO 3 RD,49.162725,-123.136579,16.0
1506,SURREY,134B ST & 88 AVE,49.162727,-122.849309,1.0
1507,RICHMOND,GILBERT RD & GRANVILLE AVE,49.162733,-123.147771,2.0
1508,RICHMOND,GRANVILLE AVE & MINORU GATE,49.162735,-123.143054,3.0
1509,RICHMOND,GRANVILLE AVE & MINORU BLVD,49.162737,-123.140216,13.0
1510,SURREY,88 AVE & KING GEORGE BLVD & TURNING LANE,49.162742,-122.845798,8.0
1511,LANGLEY,208 ST & 88 AVE & TURNING LANE,49.162744,-122.645797,1.0
1512,RICHMOND,GRANVILLE AVE & NO 2 RD,49.162744,-123.158853,2.0
1513,RICHMOND,GRANVILLE AVE & LYNAS LANE,49.162747,-123.164569,1.0
1514,SURREY,160 ST & 88 AVE,49.16275,-122.778863,3.0
1515,SURREY,88 AVE & LAUDER DR,49.16277,-122.841678,1.0
1516,SURREY,162 ST & 88 AVE,49.16277,-122.773205,4.0
1517,LANGLEY,206 ST & 88 AVE,49.162778,-122.650902,1.0
1518,SURREY,140 ST & 88 AVE,49.162789,-122.834662,11.0
1519,SURREY,139 ST & 88 AVE,49.162791,-122.837533,1.0
1520,SURREY,156 ST & 88 AVE,49.1628,-122.79017,1.0
1521,LANGLEY,204 ST & 88 AVE,49.162803,-122.656953,5.0
1522,SURREY,164 ST & 88 AVE,49.162807,-122.767712,2.0
1523,SURREY,88 AVE & NORDEL WAY,49.162818,-122.884839,1.0
1524,SURREY,192 ST & 88 AVE,49.162818,-122.690589,1.0
1525,RICHMOND,GRANVILLE AVE & NO 1 RD,49.162822,-123.181203,1.0
1526,SURREY,148 ST & 88 AVE,49.162822,-122.812386,3.0
1527,RICHMOND,GRANVILLE AVE & NO 4 RD,49.162828,-123.11405,1.0
1528,SURREY,142A ST & 88 AVE,49.162833,-122.827711,1.0
1529,SURREY,150 ST & 88 AVE,49.162833,-122.806961,1.0
1530,LANGLEY,202 ST & 88 AVE,49.162834,-122.659762,2.0
1531,SURREY,187 ST & 88 AVE,49.162837,-122.705348,1.0
1532,SURREY,140A ST & 88 AVE,49.162838,-122.8335,1.0
1533,SURREY,168 ST & 88 AVE,49.162838,-122.756632,1.0
1534,SURREY,152 ST & 88 AVE,49.162842,-122.801493,1.0
1535,RICHMOND,ASH ST & GRANVILLE AVE,49.162845,-123.119851,1.0
1536,CHILLIWACK,TRETHEWEY AVE,49.162867,-121.954372,1.0
1537,RICHMOND,GARDEN CITY RD & GRANVILLE AVE & TURNING LANE,49.162867,-123.125539,3.0
1538,RICHMOND,GIBBONS DR & GRANVILLE AVE,49.162876,-123.176683,1.0
1539,RICHMOND,BARNARD DR & GRANVILLE AVE,49.162952,-123.184353,1.0
1540,SURREY,88 AVE & MALL ACCESS,49.163045,-122.876218,1.0
1541,SURREY,154A ST & 154B ST & 88 AVE & FRASER HWY & TURNING LANE,49.163052,-122.79362,3.0
1542,NANAIMO,ALBERT ST & CAVAN ST,49.163131,-123.937096,1.0
1543,CHILLIWACK,TRETHEWEY AVE & YOUNG RD,49.163185,-121.952563,3.0
1544,DELTA,120 ST & 88 AVE,49.163208,-122.890341,1.0
1546,DELTA,117A ST & 88 AVE,49.163237,-122.897367,1.0
1547,DELTA,116 ST & 88 AVE,49.163254,-122.90214,6.0
1548,NANAIMO,FRANKLYN ST & SELBY ST,49.163365,-123.941113,1.0
1549,DELTA,DERWENT PL & DERWENT WAY,49.163546,-122.948775,1.0
1550,NANAIMO,PRIDEAUX ST,49.163592,-123.942997,1.0
1551,CHILLIWACK,ALEXANDER AVE & YALE RD,49.164022,-121.959097,1.0
1552,SURREY,134A ST,49.164109,-122.850594,2.0
1553,SURREY,135A ST & 88A AVE,49.164179,-122.848036,1.0
1554,CHILLIWACK,RAILWAY AVE & YOUNG RD,49.164263,-121.952582,2.0
1555,NANAIMO,COMMERCIAL ST & TERMINAL AVE,49.164384,-123.936626,3.0
1556,SURREY,132 ST & 89 AVE,49.164502,-122.856912,1.0
1557,SURREY,89 AVE,49.164516,-122.855841,1.0
1558,RICHMOND,COONEY RD & PARK RD,49.164697,-123.131529,5.0
1559,RICHMOND,NO 3 RD & PARK RD,49.164716,-123.136563,4.0
1560,SURREY,FLEETWOOD WAY & FRASER HWY,49.16472,-122.797925,1.0
1561,CHILLIWACK,ALEXANDER AVE & YOUNG RD,49.164759,-121.952584,2.0
1562,NANAIMO,FITZWILLIAM ST & PRIDEAUX ST,49.164825,-123.944218,2.0
1563,RICHMOND,MINORU BLVD & MINORU GATE,49.16495,-123.14081,4.0
1564,SURREY,120 ST,49.16501,-122.890237,1.0
1565,NANAIMO,FITZWILLIAM ST & SELBY ST,49.165151,-123.942909,1.0
1566,SURREY,89A AVE,49.165176,-122.830416,1.0
1567,SURREY,144 ST & 89A AVE,49.165579,-122.823528,1.0
1568,CHILLIWACK,CHESTERFIELD AVE & YOUNG RD,49.165647,-121.952588,1.0
1569,RICHMOND,NO 1 RD & TUCKER AVE,49.165914,-123.181217,1.0
1570,NANAIMO,FRONT ST & MUSEUM WAY & PAVILLION TRAIL,49.165976,-123.934805,2.0
1571,SURREY,152 ST & FRASER HWY & TURNING LANE,49.166096,-122.801369,7.0
1572,NANAIMO,PINE ST & WENTWORTH ST,49.16611,-123.95081,1.0
1573,LANGLEY,207 ST & 90 AVE,49.166126,-122.648365,1.0
1574,LANGLEY,212 ST & WALNUT GROVE DR,49.166298,-122.634787,2.0
1575,CHILLIWACK,CHEAM AVE & HODGINS AVE & YALE RD,49.166369,-121.958703,10.0
1576,NANAIMO,KENNEDY ST & WENTWORTH ST,49.166412,-123.94766,1.0
1577,RICHMOND,COOK RD & GARDEN CITY RD,49.166425,-123.124666,5.0
1578,SURREY,126 ST & 90 AVE,49.16643,-122.873584,1.0
1579,SURREY,140 ST & 90 AVE,49.166467,-122.834642,2.0
1580,RICHMOND,COOK RD & COONEY RD,49.166486,-123.131494,5.0
1581,RICHMOND,COOK RD & ECKERSLEY RD,49.166488,-123.130133,1.0
1582,RICHMOND,COOK RD & NO 3 RD,49.166509,-123.136548,7.0
1583,NANAIMO,HOWARD AVE & SECOND ST,49.166551,-123.955211,1.0
1584,NANAIMO,JINGLE POT RD & SECOND ST & WAKESIAH AVE,49.16656,-123.961034,2.0
1585,SURREY,128 ST & PRINCE CHARLES BLVD,49.166588,-122.868051,1.0
1586,CHILLIWACK,1ST AVE & CHEAM AVE & MALL ACCESS,49.166621,-121.957092,3.0
1587,CHILLIWACK,CHEAM AVE & YOUNG RD,49.166625,-121.952592,1.0
1588,DELTA,120 ST & 90 AVE,49.166821,-122.890365,1.0
1590,CHILLIWACK,HODGINS AVE & MARY ST,49.166851,-121.961364,7.0
1591,DELTA,116 ST & 90 AVE,49.166891,-122.90187,2.0
1592,RICHMOND,MINORU BLVD & MURDOCH AVE & MALL ACCESS,49.167092,-123.140482,2.0
1593,SURREY,128 ST & 90 AVE,49.167154,-122.868047,1.0
1594,DELTA,CHESTER RD & DERWENT WAY,49.167257,-122.943384,1.0
1595,CHILLIWACK,EDWARD ST & HODGINS AVE,49.167394,-121.963618,1.0
1596,RICHMOND,NO 3 RD,49.16767,-123.136473,1.0
1597,CHILLIWACK,ONTARIO AVE & YALE RD,49.16769,-121.957991,1.0
1598,GABRIOLA ISLAND,BERG RD & CARMEN CRES & STEPHENS RD,49.167737,-123.85371,1.0
1599,CHILLIWACK,2ND AVE & YOUNG RD,49.16797,-121.952593,1.0
1600,SURREY,150 ST & FRASER HWY,49.168148,-122.806734,1.0
1601,SURREY,134 ST & 91 AVE,49.168168,-122.851357,1.0
1602,NANAIMO,CAMPBELL ST & PRIDEAUX ST,49.168176,-123.945013,1.0
1603,SURREY,138 ST & 91 AVE,49.168177,-122.840296,1.0
1604,SURREY,135A ST & 91 AVE,49.168207,-122.847468,1.0
1605,SURREY,160 ST & 91 AVE,49.168268,-122.778885,1.0
1606,SURREY,152 ST & 91 AVE,49.168288,-122.801337,1.0
1607,LANGLEY,96 AVE & GLOVER RD,49.168338,-122.579992,2.0
1608,CHILLIWACK,1ST AVE & SPADINA AVE,49.168382,-121.955073,1.0
1609,CHILLIWACK,MAIN ST & PATTEN AVE,49.168465,-121.957398,1.0
1610,NANAIMO,CAMPBELL ST & WALLACE ST,49.168498,-123.941836,1.0
1611,RICHMOND,FERNDALE RD & KATSURA ST,49.168616,-123.122084,1.0
1612,RICHMOND,FERNDALE RD & GARDEN CITY RD,49.168617,-123.124629,3.0
1613,NANAIMO,CAMPBELL ST & TERMINAL AVE,49.168637,-123.940475,1.0
1614,NANAIMO,JINGLE POT RD & UNSIGNED,49.168665,-123.979734,1.0
1615,RICHMOND,GOLLNER AVE & MINORU BLVD,49.168784,-123.140284,1.0
1616,RICHMOND,COONEY RD & SABA RD,49.168826,-123.131505,1.0
1617,RICHMOND,NO 3 RD & SABA RD,49.168832,-123.136547,9.0
1618,RICHMOND,BUSWELL ST & SABA RD,49.168842,-123.133669,3.0
1619,CHILLIWACK,1ST AVE & NOWELL ST,49.16892,-121.948973,1.0
1620,CHILLIWACK,1ST AVE & YOUNG RD,49.168928,-121.952601,1.0
1621,CHILLIWACK,1ST AVE & ASPEN PL,49.168984,-121.94164,1.0
1622,CHILLIWACK,1ST AVE & HAZEL ST,49.169011,-121.939966,1.0
1623,CHILLIWACK,1ST AVE & WOODBINE ST,49.169041,-121.937487,1.0
1624,CHILLIWACK,1ST AVE & BROADWAY,49.169068,-121.935335,1.0
1625,CHILLIWACK,1ST AVE & WINDSOR ST,49.169133,-121.929974,1.0
