Latitude,Municipality,Location,Longitude,Count
59.500553,ATLIN,SLOKO CRT # 000265 TO 000289,-133.672143,1.0
54.0116,MASSET,COLLISON AVE # 002000 TO 002029,-132.147238,1.0
54.304802,PRINCE RUPERT,ATLIN AVE # 001400 TO 001543,-130.341557,1.0
54.30309,PRINCE RUPERT,KOOTENAY AVE # 001400 TO 001499,-130.335744,1.0
54.308078,PRINCE RUPERT,1ST AVE W & 2ND AVE W & 3RD AVE W & PARK AVE & TURNING LANE,-130.334134,1.0
54.31103,PRINCE RUPERT,1ST AVE W # 000800 TO 000899,-130.331702,1.0
54.31083,PRINCE RUPERT,2ND AVE W & 7TH ST,-130.32992,1.0
54.309828,PRINCE RUPERT,3RD AVE W # 000800 TO 000899,-130.329554,1.0
54.310245,PRINCE RUPERT,3RD AVE W & 7TH ST,-130.328876,1.0
54.31276,PRINCE RUPERT,2ND AVE W & 4TH ST,-130.326763,1.0
54.313356,PRINCE RUPERT,2ND AVE W & 3RD ST,-130.325784,1.0
54.304276,PRINCE RUPERT,COMOX AVE & HAYS VALE DR,-130.324844,1.0
54.313151,PRINCE RUPERT,3RD AVE W # 000300 TO 000399,-130.32412,2.0
54.3097,PRINCE RUPERT,6TH AVE W & FULTON ST,-130.323578,1.0
54.316284,PRINCE RUPERT,1ST AVE E & 1ST AVE W & MCBRIDE ST,-130.32306,2.0
54.30645,PRINCE RUPERT,9TH AVE W & COMOX AVE & FULTON ST,-130.322945,1.0
54.315139,PRINCE RUPERT,3RD AVE E & 3RD AVE W & MARKET PL & MCBRIDE ST,-130.321032,1.0
54.31254,PRINCE RUPERT,6TH AVE W & DUNSMUIR ST,-130.318917,1.0
54.313875,PRINCE RUPERT,5TH AVE E & 5TH AVE W & MCBRIDE ST,-130.318792,1.0
54.313272,PRINCE RUPERT,6TH AVE E & 6TH AVE W & MCBRIDE ST,-130.317718,3.0
54.310215,PRINCE RUPERT,HWY 16 & WANTAGE RD,-130.310755,1.0
54.320202,PRINCE RUPERT,6TH AVE E & DRY DOCK RD,-130.306288,1.0
54.320493,PRINCE RUPERT,6TH AVE E & AMBROSE AVE & HAYS COVE AVE,-130.305819,1.0
54.317723,PRINCE RUPERT,CONRAD ST & PRINCE RUPERT BLVD,-130.297723,2.0
54.055577,KITIMAT,HAISLA BLVD & KULDO BLVD,-128.666752,1.0
54.055096,KITIMAT,HAISLA BLVD & N LAHAKAS BLVD & S LAHAKAS BLVD & TURNING LANE,-128.656211,1.0
54.054268,KITIMAT,CITY CENTRE # 000100 TO 000499,-128.653057,1.0
54.058317,KITIMAT,GYRFALCON AVE & N LAHAKAS BLVD,-128.640488,1.0
54.541962,TERRACE,KALUM LAKE RD # 000350 TO 000381,-128.638074,1.0
54.05735,KITIMAT,GYRFALCON AVE # 001700 TO 001723,-128.634508,1.0
54.061921,KITIMAT,NALABILA BLVD # 001400 TO 001425,-128.631848,1.0
54.056076,KITIMAT,SWALLOW ST # 000050 TO 000119,-128.623677,1.0
54.511039,TERRACE,AGAR AVE & KENNEY ST,-128.611641,1.0
54.516303,TERRACE,HWY 16 W & KENNEY ST & TURNING LANE,-128.611432,1.0
54.516472,TERRACE,MUNROE ST # 003200 TO 003205,-128.605285,1.0
54.515655,TERRACE,EBY ST & HWY 16 FRTG & HWY 16 W & PARK ACCESS ROAD,-128.599049,1.0
54.517813,TERRACE,EBY ST & LAZELLE AVE,-128.598993,2.0
54.518721,TERRACE,EBY ST & PARK AVE,-128.598965,3.0
54.523183,TERRACE,SCOTT AVE # 004700 TO 004799,-128.595701,1.0
54.520439,TERRACE,SPARKS ST & WALSH AVE,-128.592698,1.0
54.513219,TERRACE,KEITH AVE # 004630 TO 004649,-128.59219,1.0
54.515812,TERRACE,EMERSON ST & GREIG AVE,-128.589441,1.0
54.511311,TERRACE,CRAMER ST & FEENEY AVE,-128.583695,1.0
54.511678,THORNHILL,HWY 16 E & KOFOED DR & OLD LAKELSE LAKE DR & THORNHILL FRTG RD N & ACCESS ROAD & TURNING LANE,-128.548773,1.0
54.514113,THORNHILL,DESJARDINS AVE & THORNHILL FRTG RD N,-128.541706,1.0
55.255662,HAZELTON,FIELD ST & RIVER RD,-127.676459,1.0
55.255157,GITANMAAX,HWY 62 # 001960 TO 001967,-127.664599,1.0
50.723529,PORT HARDY,GRANVILLE ST & HIGHVIEW RD & PORT HARDY SECONDARY SCHOOL ACCESS,-127.506789,1.0
50.722456,PORT HARDY,GRANVILLE ST & PINE DR,-127.505105,2.0
50.721952,PORT HARDY,GRANVILLE ST # 009160 TO 009259,-127.504312,1.0
50.729639,PORT HARDY,PARK DR # 007700 TO 007709,-127.501343,1.0
50.720659,PORT HARDY,GRANVILLE ST # 008900 TO 009099,-127.499032,1.0
50.73804,PORT HARDY,HENDERSON ST # 000412 TO 000600,-127.497423,1.0
50.720696,PORT HARDY,GRANVILLE ST & RUPERT ST,-127.496662,1.0
50.720871,PORT HARDY,MARKET ST & SHIPLEY ST & MALL ACCESS,-127.492245,1.0
50.722004,PORT HARDY,GRANVILLE ST & MARKET ST,-127.492244,1.0
50.68901,PORT HARDY,BYNG RD & FORT RUPERT RD & UNSIGNED,-127.421595,1.0
54.789009,SMITHERS,BULKLEY DR & HWY 16 & TORONTO ST & TURNING LANE,-127.176412,1.0
54.788241,SMITHERS,HWY 16 # 004200 TO 004284,-127.175203,1.0
54.79074,SMITHERS,DRIFTWOOD CRES & REISETER AVE,-127.166388,1.0
54.779864,SMITHERS,4TH AVE & KING ST,-127.166233,1.0
54.781871,SMITHERS,MAIN ST # 001450 TO 001499,-127.164557,1.0
54.777854,SMITHERS,FRONTAGE RD & FULTON AVE,-127.160473,1.0
54.774251,SMITHERS,16TH AVE & FRONTAGE RD & HWY 16 & TURNING LANE,-127.15454,1.0
54.397576,HOUSTON,HWY 16 & TWEEDIE AVE & TWEEDIE AVE N,-126.657283,1.0
54.399269,HOUSTON,HWY 16 # 003200 TO 003299,-126.650896,1.0
54.401124,HOUSTON,BUTLER AVE & HWY 16,-126.643847,1.0
49.276974,AHOUSAHT,MAIN ST # 000550 TO 000579,-126.060799,1.0
49.1489,TOFINO,CAMPBELL ST & OLSEN RD,-125.893169,1.0
54.235748,BURNS LAKE,MULVANEY CRES # 000700 TO 000798,-125.768978,1.0
54.236274,BURNS LAKE,10TH AVE & CENTER ST,-125.760007,1.0
54.224834,BURNS LAKE,HWY 16 & HWY 16 E & HWY 16 W & HWY 35 & TURNING LANE,-125.754145,1.0
48.943397,UCLUELET,BAY ST & PENINSULA RD,-125.550392,1.0
50.074806,CAMPBELL RIVER,DUNCAN BAY RD # 004900 TO 005100,-125.320327,1.0
50.014027,CAMPBELL RIVER,INLAND ISLAND HWY & INLAND ISLAND HWY ONRAMP & WILLIS RD & WILLIS RD OFFRAMP,-125.282717,1.0
50.012333,CAMPBELL RIVER,NIKOLA PL # 002100 TO 002179,-125.278092,1.0
50.033433,CAMPBELL RIVER,CAMPBELL RIVER RD & ISLAND HWY & WILLOW ST,-125.275032,2.0
50.03335,CAMPBELL RIVER,ISLAND HWY # 002060 TO 002099,-125.274576,1.0
49.894141,CAMPBELL RIVER,CRANBERRY LANE & INLAND ISLAND HWY & TURNING LANE,-125.274553,1.0
50.029108,CAMPBELL RIVER,14TH AVE & INLAND ISLAND HWY & TAMARAC ST & TURNING LANE,-125.273895,1.0
50.028977,CAMPBELL RIVER,14TH AVE & SPRUCE ST,-125.270777,1.0
50.029772,CAMPBELL RIVER,IRONWOOD ST # 001400 TO 001499,-125.254929,1.0
50.007511,CAMPBELL RIVER,EVERGREEN RD & MCPHEDRAN RD & S MCPHEDRAN RD,-125.253054,1.0
50.025055,CAMPBELL RIVER,10TH AVE & GREENWOOD ST,-125.252298,1.0
50.007509,CAMPBELL RIVER,EVERGREEN RD & MASTERS RD,-125.250755,2.0
50.033094,CAMPBELL RIVER,DOGWOOD ST & ISLAND HWY & TURNING LANE,-125.248679,2.0
50.023179,CAMPBELL RIVER,9TH AVE & DOGWOOD ST,-125.247972,1.0
50.007512,CAMPBELL RIVER,DOGWOOD ST & EVERGREEN RD & S DOGWOOD ST,-125.247401,1.0
50.011145,CAMPBELL RIVER,2ND AVE & DOGWOOD ST,-125.24739,3.0
50.029623,CAMPBELL RIVER,16TH AVE # 001359 TO 001376,-125.246658,1.0
50.01477,CAMPBELL RIVER,4TH AVE & CEDAR ST,-125.245812,1.0
50.027899,CAMPBELL RIVER,13TH AVE & SHOPPERS ROW,-125.245395,2.0
50.000276,CAMPBELL RIVER,MERECROFT RD # 000410 TO 000649,-125.244612,1.0
49.973892,CAMPBELL RIVER,HILCHEY RD # 000700 TO 000877,-125.244513,1.0
50.026107,CAMPBELL RIVER,10TH AVE & SHOPPERS ROW,-125.243837,1.0
50.024051,CAMPBELL RIVER,ALDER ST & ST ANNS RD,-125.242842,1.0
50.022348,CAMPBELL RIVER,9TH AVE & ALDER ST,-125.242839,1.0
49.994903,CAMPBELL RIVER,CHRISTOPHER RD & ROBRON RD,-125.242396,1.0
50.021765,CAMPBELL RIVER,ALDER ST # 000700 TO 000864,-125.242391,1.0
50.01114,CAMPBELL RIVER,2ND AVE # 000300 TO 000379,-125.242308,1.0
50.011139,CAMPBELL RIVER,2ND AVE & BIRCH ST,-125.241839,1.0
49.9736,CAMPBELL RIVER,COLLEGE DR & HILCHEY RD & TRILLIUM LANE,-125.240594,1.0
50.013849,CAMPBELL RIVER,MCCARTHY ST # 000300 TO 000399,-125.240577,1.0
49.959792,CAMPBELL RIVER,S ALDER ST & S DOGWOOD ST & TURNING LANE,-125.234374,1.0
49.9711,CAMPBELL RIVER,GOODWIN RD & S ALDER ST,-125.231886,1.0
49.973131,CAMPBELL RIVER,HILCHEY RD & S ALDER ST,-125.231858,2.0
50.000399,CAMPBELL RIVER,ISLAND HWY S # 000204 TO 000617,-125.230705,1.0
49.984255,CAMPBELL RIVER,GALERNO RD & ROCKLAND RD,-125.227199,1.0
49.989463,CAMPBELL RIVER,ISLAND HWY S # 000698 TO 001349,-125.22677,1.0
49.9615,CAMPBELL RIVER,APPLE DR & SODERHOLM RD,-125.221546,1.0
49.965814,CAMPBELL RIVER,HARROGATE RD & SODERHOLM CRT & SODERHOLM RD,-125.220796,1.0
49.973051,CAMPBELL RIVER,HILCHEY RD & ISLAND HWY S,-125.219139,3.0
49.970186,CAMPBELL RIVER,DALTON RD & WESTGATE RD,-125.218334,1.0
49.971258,CAMPBELL RIVER,ISLAND HWY S & WESTGATE RD,-125.21681,2.0
49.970976,CAMPBELL RIVER,ADAMS RD & ISLAND HWY S,-125.216275,1.0
49.961921,CAMPBELL RIVER,BARLOW RD & ISLAND HWY S,-125.209323,1.0
49.958422,CAMPBELL RIVER,DAHL RD & ISLAND HWY S,-125.207279,1.0
49.917816,CAMPBELL RIVER,ANTON RD & CRANE RD & ISLAND HWY S,-125.185271,1.0
49.923325,CAMPBELL RIVER,ISLAND HWY S & SEAWAVE RD,-125.184364,1.0
49.851609,BLACK CREEK,ISLAND HWY N & MIRACLE BEACH DR & TURNING LANE,-125.133423,1.0
49.870103,CAMPBELL RIVER,GLENMORE RD # 002200 TO 002279,-125.132222,1.0
49.835339,BLACK CREEK,ENNS RD & ISLAND HWY N,-125.130794,1.0
49.662265,COURTENAY,ARNETT RD # 004154 TO 004181,-125.033521,1.0
49.618856,CUMBERLAND,DUNSMUIR AVE # 002680 TO 002709,-125.0304,1.0
49.619107,CUMBERLAND,DUNSMUIR AVE & THIRD ST,-125.027755,1.0
49.619272,CUMBERLAND,DUNSMUIR AVE & FOURTH ST,-125.02605,1.0
49.706143,COURTENAY,CONDENSORY RD & PIERCY RD,-125.025154,1.0
49.685322,COURTENAY,4TH ST & WOODS AVE,-125.012691,1.0
49.676326,COURTENAY,13TH ST # 002050 TO 002109,-125.012611,1.0
49.682044,COURTENAY,CUMBERLAND RD & PIERCY AVE,-125.003306,1.0
49.689974,COURTENAY,5TH ST & FITZGERALD AVE,-125.001483,1.0
49.690464,COURTENAY,5TH ST & ENGLAND AVE,-125.000077,2.0
49.679111,COURTENAY,17TH ST & PIERCY AVE,-124.999309,1.0
49.689949,COURTENAY,6TH ST # 000300 TO 000399,-124.998724,1.0
49.68688,COURTENAY,10TH ST & FITZGERALD AVE,-124.998592,1.0
49.68864,COURTENAY,8TH ST & ENGLAND AVE,-124.998565,2.0
49.692164,COURTENAY,4TH ST & CLIFFE AVE,-124.997843,2.0
49.691439,COURTENAY,5TH ST & CLIFFE AVE & TURNING LANE,-124.997239,3.0
49.690687,COURTENAY,6TH ST & CLIFFE AVE,-124.996643,2.0
49.690283,COURTENAY,CLIFFE AVE # 000600 TO 000739,-124.996434,1.0
49.691945,COURTENAY,5TH ST & ANDERTON AVE,-124.995953,2.0
49.684793,COURTENAY,14TH ST & FITZGERALD AVE,-124.995906,1.0
49.70407,COURTENAY,HEADQUARTERS RD # 004672 TO 004691,-124.995697,1.0
49.693769,COURTENAY,5TH ST & COMOX RD & OLD ISLAND HWY,-124.992826,2.0
49.682827,COURTENAY,17TH ST & FITZGERALD AVE,-124.992533,2.0
49.695854,COURTENAY,OLD ISLAND HWY # 000300 TO 000399,-124.992204,1.0
49.696746,COURTENAY,OLD ISLAND HWY & RYAN RD & TURNING LANE,-124.992007,1.0
49.684178,COURTENAY,17TH ST & CLIFFE AVE & TURNING LANE,-124.990381,1.0
49.697414,COURTENAY,RYAN RD # 000471 TO 000599,-124.990021,1.0
49.682374,COURTENAY,19TH ST & CLIFFE AVE,-124.987367,1.0
49.674573,COURTENAY,26TH ST & KILPATRICK AVE,-124.98732,1.0
49.67957,COURTENAY,21ST ST & FITZGERALD AVE,-124.987056,1.0
49.699829,COURTENAY,RYAN RD # 001001 TO 001199,-124.985503,2.0
49.675525,COURTENAY,26TH ST & FITZGERALD AVE,-124.985037,1.0
49.711573,COURTENAY,CRUICKSHANK AVE & CRUICKSHANK PL & MUIR RD,-124.984019,2.0
49.701343,COURTENAY,BACK RD & CENTENNIAL DR & RYAN RD & TURNING LANE,-124.982712,4.0
49.676173,COURTENAY,26TH ST & CLIFFE AVE,-124.982707,2.0
49.671373,COURTENAY,29TH ST & KILPATRICK AVE,-124.982582,1.0
49.715334,COURTENAY,LERWICK RD & MISSION RD & VETERANS MEMORIAL PKY,-124.971303,1.0
49.714488,COURTENAY,LERWICK RD # 000100 TO 000199,-124.970667,1.0
49.708426,COURTENAY,RYAN RD # 002200 TO 002399,-124.969312,1.0
49.71038,COURTENAY,LERWICK RD & RYAN RD & TURNING LANE,-124.965621,1.0
49.705572,COURTENAY,LERWICK RD & MALAHAT DR,-124.959449,1.0
49.701595,COURTENAY,LERWICK RD # 001550 TO 001799,-124.955426,1.0
49.700017,COURTENAY,BIRKSHIRE BLVD & SUSSEX DR,-124.949726,2.0
49.674818,COMOX,COMOX AVE # 002274 TO 002329,-124.948492,2.0
49.688481,COMOX,ASPEN RD & GUTHRIE RD & TURNING LANE,-124.943206,3.0
49.715208,COURTENAY,RYAN RD # 003800 TO 003985,-124.942758,1.0
49.680786,COMOX,ROBB AVE & RODELLO ST,-124.939503,1.0
49.675783,COMOX,ANDERTON RD & COMOX AVE,-124.935164,2.0
49.727797,COMOX,ANDERTON RD & ELLENOR RD,-124.93288,1.0
49.727797,COURTENAY,ANDERTON RD & ELLENOR RD,-124.93288,1.0
49.675321,COMOX,COMOX AVE # 001870 TO 001999,-124.932592,1.0
49.682332,COMOX,CHURCH ST & NOEL AVE,-124.927048,1.0
49.673193,COMOX,COMOX AVE & PORT AUGUSTA ST,-124.92569,2.0
49.739367,COMOX,ELLENOR RD # 001300 TO 001320,-124.92532,1.0
49.684492,COMOX,PRITCHARD RD & SKEENA DR,-124.916971,1.0
49.705167,COMOX,KNIGHT RD # 001250 TO 001261,-124.90651,1.0
49.684284,COMOX,GUTHRIE RD & NOEL AVE,-124.901168,1.0
49.666136,COMOX,HAWKINS RD # 000000 TO 000049,-124.900677,1.0
49.268102,PORT ALBERNI,FALLS ST & PACIFIC RIM HWY & RIVER RD,-124.848649,1.0
49.279881,PORT ALBERNI,BEAVER CREEK RD & SAUNDERS RD N,-124.839258,1.0
49.262287,PORT ALBERNI,MARY ST & RIVER RD,-124.83368,1.0
49.261005,PORT ALBERNI,ELIZABETH ST # 004700 TO 004799,-124.811529,1.0
49.258478,PORT ALBERNI,GERTRUDE ST & JOHNSTON RD,-124.81096,1.0
49.257304,PORT ALBERNI,GERTRUDE ST & SOUTHGATE RD,-124.809944,2.0
49.256136,PORT ALBERNI,GERTRUDE ST & PEMBERTON RD,-124.808853,1.0
49.259469,PORT ALBERNI,ADELAIDE ST & JOHNSTON RD,-124.808341,1.0
49.245197,PORT ALBERNI,3RD AVE & REDFORD ST & STAMP AVE & TURNING LANE,-124.807575,1.0
49.243507,PORT ALBERNI,3RD AVE & BUTE ST,-124.807549,2.0
49.241875,PORT ALBERNI,3RD AVE & BURDE ST,-124.807547,1.0
49.25459,PORT ALBERNI,GERTRUDE ST & ROGER ST & STAMP AVE & TURNING LANE,-124.807427,3.0
49.234668,PORT ALBERNI,4TH AVE & ARGYLE ST,-124.806108,1.0
49.242893,PORT ALBERNI,5TH AVE # 003626 TO 003699,-124.80473,1.0
49.234668,PORT ALBERNI,5TH AVE & ARGYLE ST,-124.80472,1.0
49.245213,PORT ALBERNI,6TH AVE & REDFORD ST,-124.803326,2.0
49.249727,PORT ALBERNI,8TH AVE # 004000 TO 004099,-124.80057,2.0
49.248839,PORT ALBERNI,MAITLAND ST # 004400 TO 004447,-124.799539,1.0
49.245201,PORT ALBERNI,REDFORD ST # 004300 TO 004349,-124.79817,1.0
49.234666,PORT ALBERNI,10TH AVE & ARGYLE ST,-124.797832,1.0
49.236741,PORT ALBERNI,10TH AVE & DUNBAR ST,-124.797831,1.0
49.247014,PORT ALBERNI,10TH AVE & MORTON ST,-124.79783,1.0
49.253918,PORT ALBERNI,10TH AVE & ROGER ST,-124.797829,1.0
49.245201,PORT ALBERNI,10TH AVE & REDFORD ST,-124.797826,3.0
49.263478,PORT ALBERNI,JOHNSTON RD & REGINA AVE,-124.796831,1.0
49.245214,PORT ALBERNI,ANDERSON AVE & REDFORD ST,-124.794559,2.0
49.264181,PORT ALBERNI,JOHNSTON RD & TEBO AVE,-124.794269,1.0
49.245206,PORT ALBERNI,15TH AVE & REDFORD ST,-124.791864,1.0
49.219599,PORT ALBERNI,15TH AVE & COMOX ST,-124.790906,1.0
49.245247,PORT ALBERNI,16TH AVE & MCINTYRE DR & REDFORD ST & WOOD AVE,-124.790432,1.0
49.265794,PORT ALBERNI,CHERRY CREEK RD & JOHNSTON RD & TURNING LANE,-124.788449,1.0
49.245411,PORT ALBERNI,PORT ALBERNI HWY & REDFORD ST & SAN MATEO DR,-124.788402,1.0
49.250632,PORT ALBERNI,KENDALL AVE & WALLACE ST,-124.78768,1.0
49.21395,PORT ALBERNI,FRANKLIN RIVER RD # 000062 TO 000277,-124.782929,1.0
49.844315,POWELL RIVER,ABBOTSFORD ST & ALBERNI ST & MARINE AVE,-124.529085,3.0
49.871886,POWELL RIVER,CRANBERRY ST & MANSON AVE,-124.529026,1.0
49.875574,POWELL RIVER,IRVINE ST # 006800 TO 006859,-124.527281,1.0
49.844439,POWELL RIVER,ALBERNI ST & HARVIE AVE,-124.526296,1.0
49.837799,POWELL RIVER,COURTENAY ST & OMINECA AVE,-124.525543,2.0
49.844881,POWELL RIVER,ALBERNI ST & MICHIGAN AVE,-124.523828,1.0
49.843652,POWELL RIVER,MICHIGAN AVE # 004670 TO 004769,-124.523686,1.0
49.845881,POWELL RIVER,ALBERNI ST & JOYCE AVE,-124.520756,4.0
49.840792,POWELL RIVER,BURNABY ST & JOYCE AVE,-124.520737,1.0
49.841789,POWELL RIVER,BARNET ST & JOYCE AVE,-124.520737,2.0
49.835897,POWELL RIVER,DUNCAN ST & JOYCE AVE,-124.520688,4.0
49.830931,POWELL RIVER,JOYCE AVE & WESTVIEW AVE,-124.52057,1.0
49.870087,POWELL RIVER,CRANBERRY ST & TATLOW ST,-124.512059,1.0
49.827956,POWELL RIVER,KEMANO ST # 007200 TO 007269,-124.510793,1.0
49.868845,POWELL RIVER,CRANBERRY ST & HASLAM ST & YUKON AVE,-124.510038,1.0
49.841755,POWELL RIVER,BARNET ST & MANSON AVE,-124.509424,1.0
49.346145,QUALICUM BEACH,FERN RD W & PRIMROSE ST,-124.44435,1.0
49.348888,QUALICUM BEACH,MEMORIAL AVE & VILLAGE WAY & TURNING LANE,-124.441724,1.0
49.346147,QUALICUM BEACH,FERN RD E & FERN RD W & MEMORIAL AVE,-124.441658,1.0
49.305535,COOMBS,ALBERNI HWY # 002312 TO 002329,-124.42366,1.0
49.340241,PARKSVILLE,TARA CRES # 001000 TO 001099,-124.359079,1.0
49.339814,PARKSVILLE,ISLAND HWY W & WRIGHT RD,-124.353359,1.0
49.33015,PARKSVILLE,DOEHLE AVE & TEMPLE ST,-124.331944,1.0
49.325143,PARKSVILLE,BAY AVE & ISLAND HWY W,-124.329712,1.0
49.323394,PARKSVILLE,ISLAND HWY W & MOILLIET ST N,-124.323711,5.0
49.312058,PARKSVILLE,DESPARD AVE W & MOILLIET ST S,-124.323602,1.0
49.321077,PARKSVILLE,ALBERNI HWY & ISLAND HWY W & MORISON AVE,-124.313654,1.0
49.319389,PARKSVILLE,ALBERNI HWY & HIRST AVE W,-124.313643,1.0
49.319937,PARKSVILLE,ALBERNI HWY & MEMORIAL AVE,-124.313633,1.0
49.30994,PARKSVILLE,CRAIG ST # 000420 TO 000459,-124.312417,2.0
49.319921,PARKSVILLE,MCCARTER ST & MIDDLETON AVE,-124.309997,1.0
49.317002,PARKSVILLE,ISLAND HWY E & SHELLY RD,-124.2932,4.0
49.307398,PARKSVILLE,ARBUTUS RD & HUNTLEY RD & ISLAND HWY E,-124.264313,1.0
54.444842,FORT ST JAMES,STUART DR W # 000400 TO 000565,-124.259094,1.0
54.442514,FORT ST JAMES,DOUGLAS AVE & STUART DR E & STUART DR W,-124.250973,1.0
49.296219,NANOOSE BAY,NORTHWEST BAY RD # 001930 TO 001949,-124.223646,1.0
49.287113,NANOOSE BAY,CLAUDET RD & NORTHWEST BAY RD,-124.194114,1.0
49.27112,NANOOSE BAY,NORTHWEST BAY RD & POWDER POINT RD,-124.192615,1.0
48.817656,HONEYMOON BAY,PARK AVE # 006840 TO 006860,-124.168819,1.0
48.861893,YOUBOU,YOUBOU RD # 009704 TO 009891,-124.156713,1.0
49.25245,LANTZVILLE,LANTZVILLE RD & SNAW-NAW-AS RD,-124.122853,1.0
49.245098,LANTZVILLE,LORENZEN LANE # 008000 TO 008121,-124.122703,1.0
49.250556,LANTZVILLE,ISLAND HWY N & SUPERIOR RD & TURNING LANE,-124.101802,1.0
49.244218,LANTZVILLE,ISLAND HWY N & WARE RD & WARE RD OFFRAMP & WARE RD ONRAMP,-124.079012,1.0
48.822845,LAKE COWICHAN,POINT IDEAL DR & SOUTH SHORE RD & WELLINGTON RD W,-124.057588,1.0
48.822,LAKE COWICHAN,COWICHAN AVE W & SOUTH SHORE RD,-124.057259,1.0
48.826917,LAKE COWICHAN,COWICHAN LAKE RD & DARNELL RD,-124.051245,1.0
48.828521,LAKE COWICHAN,COWICHAN LAKE RD & MACDONALD RD,-124.048109,1.0
49.236351,NANAIMO,ISLAND HWY N # 006584 TO 006748,-124.045794,1.0
49.234394,NANAIMO,AULDS RD & HAMMOND BAY RD & ISLAND HWY N & TURNING LANE,-124.044425,1.0
49.226811,NANAIMO,DUNBAR RD & PLEASANT VALLEY WAY,-124.044179,1.0
49.231743,NANAIMO,METRAL DR # 006424 TO 006450,-124.044032,1.0
49.241454,NANAIMO,APPLECROSS RD & DOVER RD,-124.042801,1.0
49.234331,NANAIMO,CALINDA ST & HAMMOND BAY RD,-124.040168,2.0
49.238811,NANAIMO,MCROBB AVE & UPLANDS DR,-124.038545,1.0
49.224263,NANAIMO,ISLAND HWY N & TURNER RD & TURNING LANE,-124.03734,2.0
49.234235,NANAIMO,HAMMOND BAY RD & UPLANDS DR,-124.037128,1.0
49.208646,NANAIMO,BOBAN DR & MOSTAR RD,-124.035221,1.0
49.205957,NANAIMO,JINGLE POT RD & JINGLE POT RD OFFRAMP & JINGLE POT RD ONRAMP & MOSTAR RD & MOSTAR RD OFFRAMP & MOSTAR RD ONRAMP & NANAIMO PKY & PARKWAY TRAIL,-124.035074,1.0
49.211508,NANAIMO,JORDAN AVE & MAUREEN WAY & MOSTAR RD & TURNING LANE,-124.035074,2.0
49.225766,NANAIMO,TURNER RD & UPLANDS DR & TURNING LANE,-124.035019,2.0
49.223146,NANAIMO,EDGEWATER LANE & UPLANDS DR,-124.032414,1.0
49.220727,NANAIMO,OLIVER RD # 006200 TO 006208,-124.030691,1.0
49.234195,NANAIMO,HAMMOND BAY RD & MCGIRR RD & TURNER RD,-124.030324,2.0
49.220988,NANAIMO,OLIVER RD & UPLANDS DR & TURNING LANE,-124.029674,1.0
49.214414,NANAIMO,ISLAND HWY N & METRAL DR & MOSTAR RD & RUTHERFORD RD & WELLINGTON RD & TURNING LANE,-124.02938,2.0
49.209435,NANAIMO,BATES RD # 004600 TO 004699,-124.029001,1.0
49.21242,NANAIMO,ISLAND HWY N # 004700 TO 004998,-124.027542,1.0
49.234221,NANAIMO,BRICKYARD RD & HAMMOND BAY RD,-124.02634,2.0
49.218744,NANAIMO,RUTHERFORD RD & UPLANDS DR,-124.022916,2.0
49.234208,NANAIMO,BRIGANTINE DR & HAMMOND BAY RD & VENTURA DR,-124.022907,1.0
49.226224,NANAIMO,LINLEY VALLEY DR & NELSON RD & RUTHERFORD RD,-124.02213,1.0
49.238767,NANAIMO,SEALAND RD & SUNSET RD,-124.021361,1.0
49.234153,NANAIMO,HAMMOND BAY RD & RUTHERFORD RD,-124.019276,1.0
49.209298,NANAIMO,101ST ST & VICTORIA AVE,-124.018274,1.0
49.207107,NANAIMO,103RD ST & CORUNNA AVE & ISLAND HWY N & JINGLE POT RD & NORWELL DR & TURNING LANE,-124.016742,1.0
49.206098,NANAIMO,SHENTON RD # 003800 TO 003851,-124.014873,1.0
54.016045,VANDERHOOF,CHURCH AVE & STEWART ST W,-124.011478,1.0
49.207625,NANAIMO,NORWELL DR & ROSS RD & MALL ACCESS & TURNING LANE,-124.006086,1.0
49.207277,NANAIMO,BARONS RD & NORWELL DR,-124.004877,1.0
49.206297,NANAIMO,DEPARTURE BAY RD & NORWELL DR & TURNING LANE,-124.002366,2.0
49.206762,NANAIMO,DEPARTURE BAY RD # 004232 TO 004299,-124.001897,1.0
49.205318,NANAIMO,NORWELL DR # 002766 TO 002840,-124.001511,1.0
49.204412,NANAIMO,BOWEN RD & E TRAIL & ISLAND HWY N & NORWELL DR & TURNING LANE,-124.001501,3.0
49.202794,NANAIMO,BOWEN RD & KENWORTH RD,-124.001204,1.0
49.209048,NANAIMO,DEPARTURE BAY RD & UPLANDS DR,-123.997211,1.0
49.192018,NANAIMO,BOXWOOD RD & NORTHFIELD RD,-123.996591,1.0
49.192014,NANAIMO,BOWEN RD & NORTHFIELD RD & TURNING LANE,-123.992169,3.0
49.16976,NANAIMO,JINGLE POT RD & WESTWOOD RD & TURNING LANE,-123.990227,1.0
49.185738,NANAIMO,BOLLINGER RD & BOXWOOD RD,-123.989112,1.0
49.188237,NANAIMO,BOWEN RD & MEREDITH RD & ROBBIE PL & ALLEYWAY & TURNING LANE,-123.987264,4.0
49.210121,NANAIMO,DEPARTURE BAY RD & NEYLAND RD,-123.986716,1.0
49.21017,NANAIMO,DEPARTURE BAY RD & NEWTON ST & SMUGGLERS HILL DR,-123.983524,2.0
49.183802,NANAIMO,BOWEN RD & DUFFERIN CRES,-123.982534,5.0
49.1823,NANAIMO,BOWEN RD & TOWNSITE RD & TURNING LANE,-123.980735,1.0
49.180573,NANAIMO,BOWEN RD & EAST WELLINGTON RD & ACCESS ROAD & TURNING LANE,-123.978194,1.0
49.183974,NANAIMO,DUFFERIN CRES # 001680 TO 001682,-123.976338,2.0
49.177672,NANAIMO,BOWEN RD & FRONTAGE RD & MOREY RD & PRYDE AVE & TURNING LANE,-123.972495,2.0
49.183162,NANAIMO,BOUNDARY AVE & BOUNDARY CRES & DUFFERIN CRES,-123.9724,2.0
49.18819,NANAIMO,BOUNDARY AVE & MEREDITH RD & STRATHMORE ST,-123.972247,1.0
49.191933,NANAIMO,BOUNDARY AVE & E TRAIL & ISLAND HWY N & NORTHFIELD RD & TURNING LANE,-123.971695,1.0
49.202984,NANAIMO,DEPARTURE BAY RD & LOAT ST,-123.97121,1.0
49.206781,NANAIMO,DEPARTURE BAY RD & HAMMOND BAY RD & TURNING LANE,-123.970204,1.0
49.183578,NANAIMO,DUFFERIN CRES & SEAFIELD CRES,-123.969679,1.0
49.193425,NANAIMO,DEPARTURE BAY RD & MONTROSE AVE,-123.968795,1.0
49.179636,NANAIMO,BUSH ST & ST PATRICK CRES & TOWNSITE RD,-123.967876,1.0
49.17691,NANAIMO,BOWEN RD & BUTTERTUBS DR & ACCESS ROAD,-123.967399,1.0
49.190677,NANAIMO,HIGHLAND BLVD # 001901 TO 001999,-123.966266,1.0
49.190156,NANAIMO,DEPARTURE BAY RD & ISLAND HWY N & TURNING LANE,-123.965784,1.0
49.190644,NANAIMO,DEPARTURE BAY RD & ESTEVAN RD & TURNING LANE,-123.965566,1.0
49.184449,NANAIMO,DUFFERIN CRES & DUFFERIN ST & WADDINGTON RD,-123.962648,1.0
49.16656,NANAIMO,JINGLE POT RD & SECOND ST & WAKESIAH AVE,-123.961034,1.0
49.158986,NANAIMO,FOURTH ST & HILLCREST AVE,-123.959648,1.0
49.170369,NANAIMO,ACACIA AVE & FIRST ST,-123.959521,1.0
49.166559,NANAIMO,DORIC AVE & SECOND ST,-123.958126,1.0
49.15896,NANAIMO,FOURTH ST & HOWARD AVE,-123.955319,1.0
49.18103,NANAIMO,CADOGAN ST & MILLSTONE AVE,-123.954904,1.0
49.185193,NANAIMO,BRIERLEY HILL & ESTEVAN RD & LARCH ST,-123.954847,1.0
49.225159,NANAIMO,HAMMOND BAY RD & LAGOON RD,-123.953872,1.0
49.18203,NANAIMO,E TRAIL & PRINCESS ROYAL AVE & ST GEORGE ST & TERMINAL AVE N & TURNING LANE,-123.953189,1.0
49.18391,NANAIMO,ESTEVAN RD & PRINCESS ROYAL AVE,-123.952847,1.0
49.170989,NANAIMO,BOWEN RD # 000500 TO 000548,-123.95269,1.0
49.170412,NANAIMO,COMOX RD & PINE ST & TURNING LANE,-123.951817,1.0
49.175093,NANAIMO,BRADLEY ST & WALL ST,-123.950373,1.0
49.155137,NANAIMO,FIFTH ST # 000500 TO 000525,-123.950316,1.0
49.17054,NANAIMO,BOWEN RD & COMOX RD & MACHLEARY ST & WALL ST & TURNING LANE,-123.950182,1.0
49.163251,NANAIMO,FITZWILLIAM ST & PINE ST & THIRD ST,-123.950086,1.0
49.147548,NANAIMO,BRUCE AVE & SEVENTH ST,-123.949632,1.0
49.151328,NANAIMO,BRUCE AVE & SIXTH ST,-123.949602,1.0
49.155136,NANAIMO,BRUCE AVE & FIFTH ST,-123.94956,1.0
49.157047,NANAIMO,ALBION ST & BRUCE AVE,-123.949542,1.0
49.17695,NANAIMO,HOLLY AVE & TOWNSITE RD,-123.949326,1.0
49.178689,NANAIMO,TERMINAL AVE N # 000502 TO 000898,-123.947947,1.0
49.177207,NANAIMO,TERMINAL AVE N & TOWNSITE RD,-123.947393,1.0
49.164457,NANAIMO,FITZWILLIAM ST & MILTON ST,-123.945694,1.0
49.168176,NANAIMO,CAMPBELL ST & PRIDEAUX ST,-123.945013,1.0
49.166719,NANAIMO,PRIDEAUX ST & WENTWORTH ST,-123.944707,1.0
49.143723,NANAIMO,EIGHTH ST & PARK AVE,-123.943893,1.0
49.158791,NANAIMO,ALBERT ST # 000816 TO 000825,-123.942776,1.0
49.173775,NANAIMO,DAWES ST & STEWART AVE,-123.942753,2.0
49.176932,NANAIMO,NEWCASTLE AVE & ROSEHILL ST,-123.942703,1.0
49.173329,NANAIMO,STEWART AVE # 000000 TO 000099,-123.942554,1.0
49.159935,NANAIMO,ALBERT ST & MILTON ST,-123.941148,1.0
49.163365,NANAIMO,FRANKLYN ST & SELBY ST,-123.941113,1.0
49.170158,NANAIMO,COMOX RD & TERMINAL AVE & TERMINAL AVE N & TURNING LANE,-123.940848,3.0
49.160735,NANAIMO,ALBERT ST & PRIDEAUX ST,-123.940151,2.0
49.165852,NANAIMO,BASTION ST & FITZWILLIAM ST & WALLACE ST,-123.939981,2.0
49.155095,NANAIMO,FIFTH ST & RAILWAY AVE & ACCESS ROAD,-123.939912,1.0
49.146706,NANAIMO,OLD VICTORIA RD # 000834 TO 000837,-123.937367,1.0
49.15871,NANAIMO,MILTON ST # 000600 TO 000699,-123.936817,1.0
49.164384,NANAIMO,COMMERCIAL ST & TERMINAL AVE,-123.936626,4.0
49.159686,NANAIMO,PRIDEAUX ST # 000600 TO 000699,-123.936423,1.0
49.163646,NANAIMO,ALBERT ST & CHINA STEPS & COMMERCIAL ST & VICTORIA CRES & WALLACE ST,-123.93636,1.0
49.164285,NANAIMO,TERMINAL AVE # 000500 TO 000598,-123.936266,1.0
49.166992,NANAIMO,BASTION ST & FRONT ST,-123.935848,2.0
49.164032,NANAIMO,CHINA STEPS & GORDON ST & LOIS LANE & TERMINAL AVE & ACCESS ROAD & TURNING LANE,-123.935808,1.0
49.158307,NANAIMO,MILTON ST & VICTORIA RD,-123.935377,2.0
49.159338,NANAIMO,PRIDEAUX ST & VICTORIA RD,-123.935187,1.0
49.159884,NANAIMO,FINLAYSON ST & VICTORIA RD,-123.935092,1.0
49.161313,NANAIMO,ROBARTS ST & VICTORIA RD,-123.934837,2.0
49.162408,NANAIMO,CAVAN ST & VICTORIA CRES & VICTORIA RD,-123.93464,1.0
49.161888,NANAIMO,CRACE ST & NICOL ST,-123.934292,1.0
49.162965,NANAIMO,NICOL ST # 000002 TO 000018,-123.934286,1.0
49.158918,NANAIMO,NICOL ST # 000100 TO 000199,-123.934132,1.0
49.156327,NANAIMO,NICOL ST # 000255 TO 000299,-123.933994,1.0
49.156086,NANAIMO,FARQUHAR ST & NICOL ST,-123.933992,1.0
49.157882,NANAIMO,MILTON ST & NICOL ST & TURNING LANE,-123.933957,1.0
49.15063,NANAIMO,NICOL ST # 000600 TO 000757,-123.933714,1.0
49.159908,NANAIMO,FINLAYSON ST & HALIBURTON ST,-123.932775,1.0
49.165657,NANAIMO,FRONT ST & GABRIOLA FERRY TERM RD & ACCESS ROAD,-123.932174,1.0
49.159942,NANAIMO,FINLAYSON ST & IRWIN ST,-123.931417,1.0
49.077158,NANAIMO,NANAIMO RIVER RD & WHITE RAPIDS RD,-123.930152,1.0
49.142811,NANAIMO,HALIBURTON ST # 000992 TO 000999,-123.926407,1.0
49.108726,NANAIMO,RICHARDSON RD # 001860 TO 001909,-123.925987,1.0
49.128965,NANAIMO,TWELFTH ST # 000080 TO 000109,-123.924824,1.0
49.13085,NANAIMO,LAWLOR RD & TENTH ST,-123.923888,3.0
49.128963,NANAIMO,TWELFTH ST # 000060 TO 000079,-123.923752,1.0
49.135762,NANAIMO,HALIBURTON ST & ISLAND HWY S & OLD VICTORIA RD & TURNING LANE,-123.922409,1.0
49.105087,NANAIMO,FIELDING RD & KIPP RD & SCHOOLHOUSE RD & TRANS-CANADA HWY & TURNING LANE,-123.894911,2.0
49.102586,NANAIMO,MINETOWN RD & SOUTH WELLINGTON RD & TURNING LANE,-123.89317,1.0
49.096792,NANAIMO,CEDAR RD # 002090 TO 002149,-123.850457,1.0
49.174501,GABRIOLA ISLAND,NORTH RD # 000684 TO 000749,-123.837209,1.0
48.994762,LADYSMITH,4TH AVE & SYMONDS ST,-123.827221,1.0
48.993405,LADYSMITH,4TH AVE & FRENCH ST,-123.825267,1.0
48.996584,LADYSMITH,1ST AVE & WARREN ST,-123.822284,1.0
48.992582,LADYSMITH,1ST AVE & ROBERTS ST,-123.81638,1.0
48.993491,LADYSMITH,ESPLANADE AVE & ROBERTS ST & TRANSFER BEACH BLVD & ACCESS ROAD & TURNING LANE,-123.814951,1.0
49.090144,NANAIMO,INGRAM RD & SWAN RD,-123.803868,1.0
48.782064,DUNCAN,COWICHAN LAKE RD & CREIGHTON RD,-123.796453,1.0
49.012554,LADYSMITH,CHURCH RD # 012530 TO 012589,-123.788491,1.0
48.995554,LADYSMITH,SHELL BEACH RD & SILVERSTRAND RD,-123.78746,1.0
48.967308,LADYSMITH,CHEMAINUS RD & N WATTS RD,-123.784672,1.0
49.470792,SECHELT,SHORNCLIFFE AVE & SUNSHINE COAST HWY & TEREDO ST & TURNING LANE,-123.764846,1.0
49.478279,SECHELT,EBBTIDE ST & TRAIL AVE,-123.760137,1.0
49.471065,SECHELT,TEREDO ST & TRAIL AVE,-123.759134,3.0
49.472389,SECHELT,COWRIE ST & TRAIL AVE,-123.759112,1.0
49.474192,SECHELT,DOLPHIN ST & TRAIL AVE,-123.759082,1.0
49.479866,SECHELT,OSPREY ST & WHARF AVE,-123.756703,1.0
49.472382,SECHELT,COWRIE ST & INLET AVE,-123.756335,1.0
49.472357,SECHELT,ORCHARD ST & WHARF AVE,-123.754704,1.0
49.47415,SECHELT,DOLPHIN ST & SUNSHINE COAST HWY & WHARF AVE,-123.754541,1.0
49.473728,SECHELT,SUNSHINE COAST HWY # 005490 TO 005540,-123.74778,1.0
48.793483,DUNCAN,LIMERICK RD & SOMENOS RD,-123.736327,1.0
48.378635,SOOKE,GRANT RD W # 006790 TO 006800,-123.730682,1.0
48.926599,CHEMAINUS,CHEMAINUS RD & PINE ST,-123.728572,1.0
48.907579,CHEMAINUS,HENRY RD & TRANS-CANADA HWY & TURNING LANE,-123.728521,1.0
48.379727,SOOKE,GRANT RD W & OTTER POINT RD,-123.72534,1.0
48.79789,DUNCAN,HERONS WAY & LANE RD,-123.724584,1.0
48.376833,SOOKE,WEST COAST RD # 006700 TO 006719,-123.724283,1.0
48.377315,SOOKE,MURRAY RD & OTTER POINT RD & SOOKE RD & WEST COAST RD,-123.723832,1.0
48.815124,DUNCAN,COWICHAN VALLEY HWY & HALL RD,-123.723764,1.0
48.378083,SOOKE,SOOKE RD & TOWNSEND RD,-123.722957,1.0
48.785683,DUNCAN,GIBBINS RD # 003000 TO 003039,-123.721126,1.0
48.922612,CHEMAINUS,CHEMAINUS RD & CYPRESS ST,-123.719426,1.0
48.785372,DUNCAN,CAIRNSMORE ST & COLLEGE ST & GOVERNMENT ST,-123.718109,1.0
48.922892,CHEMAINUS,LEGION ST & WILLOW ST,-123.717762,1.0
48.791817,DUNCAN,SAYWARD RD & SHERMAN RD,-123.716793,1.0
48.799452,DUNCAN,GREEN RD & TRANS-CANADA HWY & TURNING LANE,-123.716595,1.0
48.779818,DUNCAN,CLIFFS RD & GOVERNMENT ST,-123.71485,1.0
48.380827,SOOKE,CHARTERS RD & SOOKE RD,-123.712369,1.0
48.789354,DUNCAN,CANADA AVE & PHILIP ST,-123.711352,1.0
48.779254,DUNCAN,INGRAM ST & JUBILEE ST,-123.710473,2.0
48.778465,DUNCAN,JUBILEE ST & KENNETH ST,-123.710451,1.0
49.440377,SECHELT,FIELD RD & SUNSHINE COAST HWY & TURNING LANE,-123.709989,1.0
49.454534,SECHELT,FIELD RD & HILLTOP RD,-123.709826,1.0
48.784673,DUNCAN,BEVERLY ST & CANADA AVE & DUNCAN ST & TURNING LANE,-123.708773,1.0
48.78205,DUNCAN,CANADA AVE & JAMES ST,-123.708317,1.0
48.779272,DUNCAN,CANADA AVE & INGRAM ST & QUEENS RD,-123.707444,2.0
48.785612,DUNCAN,BEVERLY ST # 002753 TO 002769,-123.707301,1.0
48.778506,DUNCAN,CANADA AVE & KENNETH ST,-123.707189,1.0
48.874793,CHEMAINUS,MT SICKER RD & TRANS-CANADA HWY & TURNING LANE,-123.707003,1.0
48.874793,WESTHOLME,MT SICKER RD & TRANS-CANADA HWY & TURNING LANE,-123.707003,1.0
48.767104,DUNCAN,ALLENBY RD & BOYS RD,-123.706779,1.0
48.778873,DUNCAN,CORONATION AVE & DUNCAN ST,-123.706644,1.0
48.776802,DUNCAN,CANADA AVE & GOVERNMENT ST & RIVER RD & TRUNK RD,-123.706586,1.0
48.786627,DUNCAN,BEVERLY ST & TRANS-CANADA HWY & TURNING LANE,-123.706189,2.0
48.776794,DUNCAN,COWICHAN WAY & DUNCAN ST & TRUNK RD,-123.705903,1.0
48.778751,DUNCAN,BRAE RD & CORONATION AVE,-123.704656,1.0
48.776757,DUNCAN,TRUNK RD # 000050 TO 000298,-123.703971,1.0
48.778735,DUNCAN,CORONATION AVE & YPRES ST,-123.703295,1.0
48.773565,DUNCAN,COWICHAN WAY # 000100 TO 000299,-123.703103,2.0
48.778732,DUNCAN,CORONATION AVE & FESTUBERT ST,-123.702041,1.0
48.776832,DUNCAN,ST JULIEN ST & TRUNK RD,-123.70084,2.0
48.387543,SOOKE,DERBEND RD & EDWARD MILNE RD & SOOKE RD & SOOKE RIVER RD & TURNING LANE,-123.700574,1.0
48.782154,DUNCAN,JAMES ST & TRANS-CANADA HWY & YORK RD & TURNING LANE,-123.699142,1.0
48.78125,DUNCAN,ALEXANDER ST & TRANS-CANADA HWY & YORK RD,-123.698856,3.0
48.778717,DUNCAN,CORONATION AVE & TRANS-CANADA HWY,-123.698841,4.0
48.776846,DUNCAN,TRANS-CANADA HWY & TRUNK RD,-123.698837,8.0
48.773516,DUNCAN,COWICHAN WAY & TRANS-CANADA HWY,-123.69881,5.0
48.783393,DUNCAN,YORK RD # 005840 TO 005879,-123.69881,1.0
48.769611,DUNCAN,BOYS RD & JACOB RD & TRANS-CANADA HWY & TURNING LANE,-123.698803,1.0
48.387714,SOOKE,LAZZAR RD & SOOKE RD,-123.696838,1.0
48.77691,DUNCAN,MARCHMONT RD & MCKINSTRY RD & TRUNK RD,-123.695067,3.0
48.385294,SOOKE,GEORGE LANE # 003017 TO 003049,-123.694231,1.0
48.778739,DUNCAN,CORONATION AVE & HOWARD AVE,-123.694008,1.0
48.987353,THETIS ISLAND,FORBES RD & NORTH COVE RD,-123.68614,1.0
52.125696,REDSTONE,CHILCOTIN-BELLA COOLA HWY 20 & REDSTONE-CHEZACUT RD,-123.683515,1.0
48.780647,DUNCAN,BRIER AVE & TZOUHALEM RD,-123.676865,1.0
48.784045,DUNCAN,CHURCH RD & MAPLE BAY RD,-123.667297,1.0
49.433816,ROBERTS CREEK,FLUME RD & LOCKYER RD & SUNSHINE COAST HWY,-123.660053,3.0
48.65546,SHAWNIGAN LAKE,DAMASCUS RD & TERRACE RD,-123.659449,1.0
48.81438,DUNCAN,STAMPS RD # 001795 TO 001809,-123.654775,1.0
48.867909,CROFTON,CROFTON RD # 008160 TO 008299,-123.649549,1.0
48.858411,CROFTON,OSBORNE BAY RD & YORK AVE,-123.645614,1.0
48.633267,SHAWNIGAN LAKE,SHAWNIGAN LAKE RD # 002200 TO 002356,-123.635308,1.0
48.686384,COBBLE HILL,COBBLE HILL RD & EMPRESS AVE & HUTCHINSON RD,-123.603505,1.0
48.54597,MALAHAT,STEBBINGS RD # 000318 TO 000319,-123.599556,1.0
48.649739,MILL BAY,CAMERON-TAGGART RD # 002650 TO 002729,-123.58694,1.0
49.394031,GIBSONS,2ND ST & OCEAN BEACH ESPL,-123.55863,1.0
48.365059,METCHOSIN,ROCKY POINT RD # 004972 TO 004999,-123.555376,1.0
48.460091,LANGFORD,AMY RD & SOOKE LAKE RD,-123.548311,1.0
48.860745,SALT SPRING ISLAND,RAINBOW RD # 000871 TO 000899,-123.548098,2.0
48.452583,LANGFORD,KETTLE CREEK CRES & TRESTLE PL,-123.543059,1.0
48.689811,COBBLE HILL,ARBUTUS DR N & ARBUTUS DR S & ARBUTUS PKY,-123.541544,1.0
48.451471,LANGFORD,LANDING LANE & TURTLE BAY BEND & WEST SHORE PKY,-123.541255,1.0
48.457011,LANGFORD,AMY RD # 002870 TO 002889,-123.540572,1.0
49.406348,GIBSONS,HENRY RD & SUNSHINE COAST HWY,-123.540178,1.0
48.890079,SALT SPRING ISLAND,NORTH END RD # 001170 TO 001421,-123.536223,1.0
48.430833,LANGFORD,CHAN PL & PENWOOD RD & SOOKE RD,-123.534222,1.0
48.443864,LANGFORD,ALOUETTE DR & FRESHWATER CRES & LANGFORD LAKE RD,-123.533005,1.0
48.4227,LANGFORD,HAPPY VALLEY RD & TURNSTONE DR,-123.532927,1.0
49.391267,GIBSONS,PRATT RD & ROSAMUND RD,-123.529351,1.0
48.44395,LANGFORD,LAKEPOINT WAY & LANGFORD LAKE RD & LANGFORD PKY,-123.528037,1.0
48.437339,LANGFORD,GLEN LAKE RD & MARY ELLEN PL,-123.526628,1.0
48.433674,LANGFORD,GALLOPING GOOSE TRAIL & GLEN LAKE RD & SOOKE RD & TURNING LANE,-123.526165,1.0
48.441729,LANGFORD,GLEN LAKE RD & JENKINS AVE,-123.52321,1.0
49.406684,GIBSONS,GIBSONS WAY & PARK RD,-123.523149,2.0
48.443714,LANGFORD,LANGFORD PKY & LEIGH RD,-123.523044,1.0
49.406704,GIBSONS,GIBSONS WAY # 000920 TO 000959,-123.521797,1.0
48.448478,LANGFORD,LINDSAY PL # 001130 TO 001149,-123.520804,1.0
49.406725,GIBSONS,GIBSONS WAY & SUNNYCREST RD,-123.520445,1.0
49.406736,GIBSONS,GIBSONS WAY # 000890 TO 000919,-123.519661,1.0
49.406747,GIBSONS,GIBSONS WAY & SHAW RD,-123.518877,1.0
48.448268,LANGFORD,KIWI RD & LEIGH RD,-123.518851,2.0
49.417779,GIBSONS,CEMETERY RD & GILMOUR RD,-123.518515,1.0
48.449678,LANGFORD,GOLDSTREAM AVE & LEIGH RD,-123.518139,2.0
48.443476,LANGFORD,LANGFORD PKY # 000980 TO 001069,-123.517954,1.0
48.431209,COLWOOD,ERNHILL DR & JACKLIN RD,-123.516895,1.0
48.431209,LANGFORD,ERNHILL DR & JACKLIN RD,-123.516895,1.0
48.433882,COLWOOD,JACKLIN RD & SOOKE RD & TURNING LANE,-123.515046,4.0
48.433882,LANGFORD,JACKLIN RD & SOOKE RD & TURNING LANE,-123.515046,4.0
48.435337,COLWOOD,ANKATHEM PL & SUNRIDGE VALLEY DR,-123.512973,1.0
48.438569,LANGFORD,JACKLIN RD & TERLANE AVE & TERLANE PL,-123.512666,2.0
48.440337,LANGFORD,JACKLIN RD & JENKINS AVE & KELLY RD,-123.511698,2.0
48.860737,SALT SPRING ISLAND,LOWER GANGES RD # 000350 TO 000399,-123.510657,1.0
48.439543,LANGFORD,KELLY RD & MERCHANT WAY & MALL ACCESS,-123.510323,1.0
48.461806,LANGFORD,BUCKLER AVE & SETCHFIELD AVE,-123.508187,1.0
48.438222,LANGFORD,BRITTANY DR & KELLY RD & PHIPPS RD,-123.507132,2.0
49.402269,GIBSONS,PERIWINKLE LANE & SCHOOL RD,-123.506182,1.0
48.450544,LANGFORD,GOLDSTREAM AVE & JACKLIN RD,-123.505703,2.0
48.442321,LANGFORD,LANGFORD PKY & PHIPPS RD,-123.504709,6.0
48.453706,LANGFORD,BROCK AVE & FERGUS CRT & JACKLIN RD,-123.503469,1.0
48.44797,LANGFORD,HOCKLEY AVE # 000800 TO 000853,-123.503025,1.0
48.854365,SALT SPRING ISLAND,JACKSON AVE & RAINBOW RD,-123.502624,1.0
48.447498,LANGFORD,HOCKLEY AVE & PEATT RD,-123.501756,1.0
48.406503,COLWOOD,LATORIA RD & WISHART RD,-123.501672,1.0
48.448106,LANGFORD,PEATT RD # 002822 TO 002849,-123.50139,1.0
48.448987,LANGFORD,PEATT RD # 002800 TO 002821,-123.500859,1.0
48.449358,LANGFORD,GOLDSTREAM AVE & PEATT RD,-123.500636,2.0
48.85123,SALT SPRING ISLAND,FULFORD-GANGES RD & SEAVIEW AVE,-123.500627,1.0
48.853554,SALT SPRING ISLAND,HEREFORD AVE & LOWER GANGES RD & PURVIS LANE,-123.500026,1.0
48.851744,SALT SPRING ISLAND,FULFORD-GANGES RD # 000140 TO 000173,-123.499983,1.0
48.451116,LANGFORD,PEATT RD # 002700 TO 002799,-123.499568,1.0
48.44899,LANGFORD,CLAUDE RD & GOLDSTREAM AVE,-123.499377,3.0
48.845944,SALT SPRING ISLAND,DEAN RD & FULFORD-GANGES RD,-123.498817,1.0
48.448597,LANGFORD,BRYN MAUR RD & GOLDSTREAM AVE & MALL ACCESS,-123.498401,1.0
48.460388,LANGFORD,MCCALLUM RD & MILLSTREAM RD & TURNING LANE,-123.497264,2.0
48.456857,LANGFORD,MILLSTREAM RD & MILLSTREAM RD OFFRAMP & MILLSTREAM RD ONRAMP & TRANS-CANADA HWY & VETERANS MEMORIAL PKY & VETERANS MEMORIAL PKY OFFRAMP & VETERANS MEMORIAL PKY ONRAMP,-123.497195,1.0
48.455083,LANGFORD,PEATT RD & STRANDLUND AVE & VETERANS MEMORIAL PKY,-123.496356,1.0
48.447427,LANGFORD,E RAIL TRAIL & GOLDSTREAM AVE & VETERANS MEMORIAL PKY & TURNING LANE,-123.495547,3.0
48.451026,LANGFORD,PERCY PL & VETERANS MEMORIAL PKY,-123.495407,1.0
48.449258,LANGFORD,HOFFMAN AVE & MASSIE DR & VETERANS MEMORIAL PKY,-123.495147,1.0
48.435973,COLWOOD,ADYE RD & KELLY RD & METCHOSIN RD,-123.495058,1.0
48.448163,LANGFORD,ATKINS AVE # 000630 TO 000669,-123.492111,1.0
48.43488,COLWOOD,KELLY RD & SOOKE RD,-123.491189,2.0
48.419964,COLWOOD,LAGOON RD & METCHOSIN RD,-123.48534,1.0
48.819094,SALT SPRING ISLAND,FULFORD-GANGES RD & HOREL RD,-123.483208,1.0
48.690191,NORTH SAANICH,CHALET RD # 011362 TO 011471,-123.478999,1.0
48.822715,SALT SPRING ISLAND,BLACKBURN RD & FULFORD-GANGES RD,-123.4786,1.0
49.434895,LANGDALE,PORT MELLON HWY # 001376 TO 001398,-123.478573,1.0
48.673498,NORTH SAANICH,DEEP COVE RD & DOWNEY RD,-123.478069,1.0
48.439971,COLWOOD,ALDEANE AVE & GALLOPING GOOSE TRAIL & SOOKE RD & UNIVERSITY DR,-123.477251,4.0
48.440611,COLWOOD,COLWOOD CRES & SOOKE RD,-123.473746,1.0
48.445008,COLWOOD,WALE RD # 000330 TO 000348,-123.471452,1.0
48.445166,COLWOOD,GALLOPING GOOSE TRAIL & WALE RD & WILFERT RD,-123.470412,1.0
48.442157,COLWOOD,GOLDSTREAM AVE & ISLAND HWY & SOOKE RD & MALL ACCESS & TURNING LANE,-123.469617,1.0
48.445129,COLWOOD,GALLOPING GOOSE TRAIL & ISLAND HWY & OCEAN BLVD & WALE RD & BUS LANE & TURNING LANE,-123.467084,1.0
48.461399,VIEW ROYAL,PRESLEY PL & SIX MILE RD & SIX MILE RD OFFRAMP & SIX MILE RD ONRAMP & TRANS-CANADA HWY,-123.466039,1.0
48.450197,VIEW ROYAL,ISLAND HWY # 001726 TO 001732,-123.464525,1.0
48.451963,VIEW ROYAL,ISLAND HWY & WILFERT RD & TURNING LANE,-123.463389,1.0
48.457021,VIEW ROYAL,ISLAND HWY # 000480 TO 000494,-123.458777,1.0
48.45731,VIEW ROYAL,ISLAND HWY & SIX MILE RD,-123.458576,2.0
48.572432,CENTRAL SAANICH,HAGAN RD & MARCHANT RD,-123.458016,2.0
48.583525,CENTRAL SAANICH,WEST SAANICH RD # 007390 TO 007449,-123.457153,2.0
48.579445,CENTRAL SAANICH,WEST SAANICH RD # 007250 TO 007259,-123.451488,1.0
48.630048,NORTH SAANICH,MCTAVISH RD & WILLIAMS RD,-123.451075,1.0
48.57716,CENTRAL SAANICH,WEST SAANICH RD # 007141 TO 007199,-123.447991,1.0
48.575277,CENTRAL SAANICH,WALLACE DR & WEST SAANICH RD,-123.44531,2.0
48.685903,NORTH SAANICH,ALDER RD & LAUREL RD,-123.443921,1.0
48.579712,CENTRAL SAANICH,STELLYS CROSS RD # 001331 TO 001520,-123.442719,1.0
48.565171,CENTRAL SAANICH,BENVENUTO AVE & KEATING CROSS RD & WEST SAANICH RD & TURNING LANE,-123.438536,1.0
48.762112,SALT SPRING ISLAND,REGINALD HILL RD # 000158 TO 000349,-123.437636,1.0
48.453608,VIEW ROYAL,ISLAND HWY & PLOWRIGHT RD,-123.437054,1.0
48.458052,VIEW ROYAL,HELMCKEN RD & PHEASANT LANE,-123.436357,1.0
48.452641,VIEW ROYAL,ISLAND HWY & VIEW ROYAL AVE,-123.434605,2.0
48.463964,VIEW ROYAL,GALLOPING GOOSE TRAIL & HELMCKEN RD & HELMCKEN RD OFFRAMP & HELMCKEN RD ONRAMP & TRANS-CANADA HWY & TURNING LANE,-123.430959,1.0
48.468162,VIEW ROYAL,HELMCKEN RD & WATKISS WAY & ACCESS ROAD,-123.430361,1.0
48.690897,NORTH SAANICH,LANDS END RD & WILD ROSE LANE,-123.426127,1.0
48.467834,VIEW ROYAL,CAMDEN AVE & HELMCKEN RD,-123.42557,1.0
48.465301,VIEW ROYAL,CAMDEN AVE & CHELTENHAM ST & GALLOPING GOOSE TRAIL,-123.425199,1.0
48.429316,ESQUIMALT,CANTEEN RD & ESQUIMALT RD,-123.424498,1.0
48.588738,CENTRAL SAANICH,PROSSER RD & WALLACE DR,-123.421781,1.0
48.447819,VIEW ROYAL,MIDDLE RD,-123.421324,1.0
48.666107,NORTH SAANICH,JOHN RD OFFRAMP & PATRICIA BAY HWY,-123.42117,1.0
48.594657,CENTRAL SAANICH,MT NEWTON CROSS RD & WALLACE DR,-123.419416,1.0
48.515453,SAANICH,WEST SAANICH RD # 005000 TO 005065,-123.418968,1.0
48.454876,SAANICH,ADMIRALS RD & MURRAY DR,-123.418094,1.0
48.638075,NORTH SAANICH,CANORA RD & FROST AVE W,-123.417953,1.0
48.638075,SIDNEY,CANORA RD & FROST AVE W,-123.417953,1.0
48.636576,NORTH SAANICH,BRACKMAN WAY & CANORA RD & SUMMERGATE BLVD,-123.41751,1.0
48.636576,SIDNEY,BRACKMAN WAY & CANORA RD & SUMMERGATE BLVD,-123.41751,1.0
48.429894,ESQUIMALT,ADMIRALS RD & ESQUIMALT RD,-123.416958,4.0
48.594182,CENTRAL SAANICH,EAST SAANICH RD & MT NEWTON CROSS RD,-123.416924,2.0
48.5952,CENTRAL SAANICH,EAST SAANICH RD # 007800 TO 007879,-123.416894,2.0
48.432102,ESQUIMALT,ADMIRALS RD & ASTLE ST,-123.416878,1.0
48.655342,NORTH SAANICH,MCDONALD PARK RD & MILLS RD & MILLS RD W,-123.416832,1.0
48.655342,SIDNEY,MCDONALD PARK RD & MILLS RD & MILLS RD W,-123.416832,1.0
48.430003,ESQUIMALT,COMERFORD ST & ESQUIMALT RD & GRENVILLE AVE,-123.415713,1.0
48.451025,SAANICH,GORGE RD W & WYNDEATT AVE,-123.414454,1.0
48.450716,SAANICH,ADELAIDE AVE & GORGE RD W,-123.413934,1.0
48.456377,SAANICH,ADMIRALS RD & COWPER ST,-123.413453,1.0
48.683649,NORTH SAANICH,DOLPHIN RD & KITTIWAKE PL & LANDS END RD & LANDS END RD OFFRAMP & LANDS END RD ONRAMP & PATRICIA BAY HWY & SWARTZ BAY PASSENGER LOOP,-123.412558,1.0
48.430142,ESQUIMALT,ESQUIMALT RD & FRASER ST,-123.412444,3.0
48.653784,SIDNEY,GALARAN RD # 010000 TO 010049,-123.412402,2.0
48.565127,CENTRAL SAANICH,KEATING CROSS RD & VEYANESS RD,-123.410552,1.0
48.61737,NORTH SAANICH,ALDOUS TERRACE # 008600 TO 008729,-123.410281,1.0
48.648917,SIDNEY,BEACON AVE W & STIRLING WAY,-123.409317,1.0
48.458602,SAANICH,ADMIRALS RD & ESSON RD,-123.408368,1.0
48.65199,SIDNEY,BESSREDGE PL # 009900 TO 009959,-123.40819,1.0
48.427249,ESQUIMALT,LAMPSON ST & LYALL ST,-123.407605,1.0
48.428856,ESQUIMALT,LAMPSON ST & WOLLASTON ST,-123.407114,1.0
48.648896,SIDNEY,BEACON AVE & BEACON AVE OFFRAMP & BEACON AVE ONRAMP & BEACON AVE W & LOCHSIDE TRAIL & PATRICIA BAY HWY,-123.407073,1.0
48.429589,ESQUIMALT,ESQUIMALT RD & LAMPSON ST,-123.406854,1.0
48.472002,SAANICH,GRANGE RD & INTERURBAN RD,-123.405642,3.0
48.459684,SAANICH,ADMIRALS RD & ADMIRALS RD OFFRAMP & HUNTER ST & MCKENZIE AVE & MCKENZIE AVE OFFRAMP & TRANS-CANADA HWY & TRANS-CANADA HWY ONRAMP & TURNING LANE,-123.404754,2.0
48.648931,SIDNEY,BEACON AVE & SEVENTH ST,-123.40372,2.0
48.6502,SIDNEY,JAMES WHITE BLVD & SEVENTH ST,-123.40372,1.0
48.464782,SAANICH,MARIGOLD RD & SNOWDROP AVE,-123.403476,1.0
48.435742,ESQUIMALT,DEVONSHIRE RD & LAMPSON ST,-123.402979,1.0
48.572422,CENTRAL SAANICH,EAST SAANICH RD & ISLAND VIEW RD,-123.402943,1.0
48.657055,SIDNEY,MALAVIEW AVE & RESTHAVEN DR,-123.402942,2.0
48.655343,SIDNEY,MILLS RD & RESTHAVEN DR,-123.402901,1.0
48.650218,SIDNEY,JAMES WHITE BLVD & RESTHAVEN DR,-123.402316,1.0
48.650618,SIDNEY,RESTHAVEN DR # 009850 TO 009885,-123.402316,1.0
48.648931,SIDNEY,BEACON AVE & RESTHAVEN DR & MALL ACCESS,-123.402296,2.0
48.462011,SAANICH,BURNSIDE RD W & MCKENZIE AVE & TURNING LANE,-123.402257,2.0
48.441857,ESQUIMALT,CRAIGFLOWER RD & TILLICUM RD,-123.402136,1.0
48.442454,ESQUIMALT,TILLICUM RD # 001000 TO 001019,-123.401951,1.0
48.466783,SAANICH,COLQUITZ-CAREY PARK TRAIL & INTERURBAN RD & MARIGOLD RD,-123.401489,1.0
48.444438,ESQUIMALT,MCNAUGHTON AVE & TILLICUM RD,-123.401336,1.0
48.430592,ESQUIMALT,ESQUIMALT RD & HEAD ST,-123.400613,4.0
48.446093,ESQUIMALT,GORGE BRIDGE & TILLICUM RD,-123.400426,1.0
48.447716,SAANICH,GORGE RD W & TILLICUM RD & TURNING LANE,-123.400421,3.0
48.648936,SIDNEY,BEACON AVE & FIFTH ST,-123.400314,2.0
48.647645,SIDNEY,BEVAN AVE & FIFTH ST,-123.400307,1.0
48.650222,SIDNEY,FIFTH ST & JAMES WHITE BLVD & SIDNEY AVE,-123.400293,2.0
48.491985,SAANICH,LINDSAY ST & WILKINSON RD,-123.400192,1.0
48.448632,SAANICH,TILLICUM RD & VINCENT AVE,-123.399514,1.0
48.651193,SIDNEY,FOURTH ST & MT BAKER AVE,-123.399051,1.0
48.469317,SAANICH,DAFFODIL AVE & MARIGOLD RD,-123.398986,1.0
48.647646,SIDNEY,BEVAN AVE & THIRD ST,-123.397806,1.0
48.648929,SIDNEY,BEACON AVE & THIRD ST,-123.397801,1.0
48.650221,SIDNEY,SIDNEY AVE & THIRD ST,-123.397793,2.0
48.447323,SAANICH,GORGE RD W & ORILLIA ST,-123.397445,1.0
48.648895,SIDNEY,BEACON AVE & SECOND ST,-123.396562,1.0
48.451857,SAANICH,ARENA RD & MADDOCK AVE W & TILLICUM RD,-123.395831,1.0
48.469489,SAANICH,CAREY RD & NORWOOD DR,-123.395533,1.0
48.55428,CENTRAL SAANICH,BELLA VISTA DR & MARIE MEADOWS RD & TANNER RD,-123.39544,1.0
48.476738,SAANICH,BREMERTON ST # 004130 TO 004149,-123.394861,1.0
48.458752,SAANICH,BURNSIDE RD W & INTERURBAN RD,-123.394649,2.0
48.431782,ESQUIMALT,DOMINION RD & ESQUIMALT RD,-123.39429,1.0
48.431782,VICTORIA,DOMINION RD & ESQUIMALT RD,-123.39429,1.0
48.432941,ESQUIMALT,DOMINION RD & OLD ESQUIMALT RD & VIEWFIELD RD & WILSON ST,-123.394254,1.0
48.432941,VICTORIA,DOMINION RD & OLD ESQUIMALT RD & VIEWFIELD RD & WILSON ST,-123.394254,1.0
48.454222,SAANICH,BURNSIDE RD W & TILLICUM RD & TURNING LANE,-123.393141,4.0
48.554292,CENTRAL SAANICH,CLEAR VIEW RD & PATRICIA BAY HWY & TANNER RD & TURNING LANE,-123.3928,1.0
48.479392,SAANICH,GLANFORD AVE & LEASIDE AVE,-123.391504,1.0
48.438907,VICTORIA,COVENTRY AVE & CRAIGFLOWER RD,-123.39138,1.0
48.446341,SAANICH,OBED AVE & QUAPPELLE ST,-123.390522,1.0
48.443908,SAANICH,GORGE RD E & GORGE RD W & HARRIET RD,-123.390479,3.0
48.443908,VICTORIA,GORGE RD E & GORGE RD W & HARRIET RD,-123.390479,3.0
48.430797,VICTORIA,ESQUIMALT RD & MAITLAND ST,-123.390427,2.0
48.458097,SAANICH,GALLOPING GOOSE TRAIL & TILLICUM RD & TRANS-CANADA HWY & TURNING LANE,-123.390399,2.0
48.49627,SAANICH,ELK LAKE DR & WEST SAANICH RD,-123.38995,1.0
48.561575,CENTRAL SAANICH,LOCHSIDE DR & MARTINDALE RD,-123.38961,1.0
48.499079,SAANICH,ELK LAKE DR & ROYAL OAK DR & TURNING LANE,-123.388034,4.0
48.476691,SAANICH,BIRTLES AVE # 004120 TO 004169,-123.387676,1.0
48.464383,SAANICH,CAREY RD & GLANFORD AVE & RALPH ST,-123.38731,2.0
48.450774,SAANICH,BURNSIDE RD W & WASCANA ST,-123.387249,1.0
48.461861,SAANICH,KAMLOOPS AVE & TILLICUM RD,-123.38714,1.0
48.491745,SAANICH,WEST SAANICH RD # 004400 TO 004439,-123.386616,2.0
48.488934,SAANICH,WEST SAANICH RD # 004350 TO 004367,-123.386351,1.0
48.463355,SAANICH,CAREY RD & TILLICUM RD,-123.385842,1.0
48.448436,SAANICH,HARRIET RD # 003100 TO 003199,-123.385742,1.0
48.448436,VICTORIA,HARRIET RD # 003100 TO 003199,-123.385742,1.0
48.420933,VICTORIA,DALLAS RD & SIMCOE ST,-123.385568,1.0
48.498807,SAANICH,PATRICIA BAY HWY & ROYAL OAK DR,-123.385291,2.0
48.498849,SAANICH,PATRICIA BAY HWY & ROYAL OAK DR & ROYAL OAK DR OFFRAMP & ROYAL OAK DR ONRAMP,-123.385139,4.0
48.432869,VICTORIA,CATHERINE ST & WILSON ST,-123.38475,1.0
48.430402,VICTORIA,CATHERINE ST & ESQUIMALT RD,-123.384722,3.0
48.44945,SAANICH,BURNSIDE RD E & BURNSIDE RD W & HARRIET RD,-123.384629,2.0
48.44945,VICTORIA,BURNSIDE RD E & BURNSIDE RD W & HARRIET RD,-123.384629,2.0
48.477104,SAANICH,DOUGLAS ST & GENEVIEVE RD,-123.384433,1.0
48.505424,SAANICH,ADELINE PL & FALAISE DR,-123.384387,1.0
48.51428,SAANICH,CHERRY TREE BEND & ELK LAKE DR & HALIBURTON RD & PATRICIA BAY HWY & TURNING LANE,-123.384319,1.0
48.494438,SAANICH,CHATTERTON WAY & ROYAL OAK AVE,-123.38409,1.0
48.485894,SAANICH,CHATTERTON WAY & QUADRA ST,-123.382418,3.0
48.432857,VICTORIA,BAY ST & WILSON ST,-123.382291,1.0
48.443087,VICTORIA,GORGE RD E & WASHINGTON AVE,-123.3819,5.0
48.45997,SAANICH,CAREY RD & HUXLEY ST,-123.381502,2.0
48.443062,VICTORIA,GORGE RD E # 000240 TO 000317,-123.380879,2.0
48.463815,SAANICH,PATRICIA BAY HWY # 003841 TO 003929,-123.379981,1.0
48.483618,SAANICH,PANORAMA DR & QUADRA ST,-123.379725,1.0
48.497891,SAANICH,CHATTERTON WAY & ROYAL OAK DR,-123.379468,2.0
48.469573,SAANICH,BLACKBERRY RD & DOUGLAS ST,-123.379446,1.0
48.535371,SAANICH,FOWLER RD & MENAWOOD PL,-123.379136,1.0
48.514239,SAANICH,DEL MONTE AVE & HALIBURTON RD,-123.378543,1.0
48.452414,SAANICH,BOLESKINE RD & TENNYSON AVE,-123.378323,1.0
48.488274,SAANICH,EMILY CARR DR # 004320 TO 004329,-123.377786,1.0
48.459373,SAANICH,BLANSHARD ST & PATRICIA BAY HWY & VERNON AVE & ACCESS ROAD,-123.377663,1.0
48.411995,VICTORIA,DALLAS RD & MENZIES ST,-123.377593,1.0
48.445966,VICTORIA,ALPHA ST & BURNSIDE RD E,-123.377583,1.0
48.456367,SAANICH,CAREY RD & RAVINE WAY,-123.377478,3.0
48.4285,VICTORIA,ESQUIMALT RD & TYEE RD & TURNING LANE,-123.377273,2.0
48.479748,SAANICH,LILY AVE & QUADRA ST,-123.377231,1.0
48.454982,SAANICH,CAREY RD & DOUGLAS ST & TRANS-CANADA HWY & TURNING LANE,-123.377229,1.0
48.4419,VICTORIA,GORGE RD E & JUTLAND RD & TURNING LANE,-123.376606,2.0
48.457338,SAANICH,BLANSHARD ST & RAVINE WAY,-123.376479,2.0
48.47828,SAANICH,QUADRA ST & ROGERS AVE,-123.375926,1.0
48.531815,SAANICH,CORDOVA BAY RD & LOCHSIDE DR,-123.375696,1.0
48.452759,SAANICH,BOLESKINE RD & DOUGLAS ST & SAANICH RD & TURNING LANE,-123.375427,6.0
48.458352,SAANICH,RAVINE WAY & VERNON AVE,-123.375411,1.0
48.441179,VICTORIA,DUNEDIN ST & GORGE RD E,-123.374717,2.0
48.418807,VICTORIA,SUPERIOR ST # 000400 TO 000499,-123.374379,1.0
48.454201,SAANICH,OAK ST & SAANICH RD & UPTOWN BLVD & TURNING LANE,-123.374304,5.0
48.415346,VICTORIA,MENZIES ST & SIMCOE ST & TORONTO ST,-123.373913,2.0
48.44418,VICTORIA,BURNSIDE RD E & FINLAYSON ST & JUTLAND RD,-123.373861,1.0
48.450121,SAANICH,DOUGLAS ST # 003301 TO 003359,-123.373804,1.0
48.440729,VICTORIA,BRIDGE ST & GORGE RD E,-123.373522,1.0
48.47622,SAANICH,AMBASSADOR AVE & QUADRA ST,-123.373394,1.0
48.449256,SAANICH,CLOVERDALE AVE & DOUGLAS ST & KELVIN RD,-123.373348,1.0
48.468957,SAANICH,MCKENZIE AVE & NELTHORPE ST,-123.373245,1.0
48.416983,VICTORIA,MENZIES ST & MICHIGAN ST,-123.373018,1.0
48.491688,SAANICH,EMILY CARR DR & FIR TREE GLEN,-123.372889,1.0
48.435432,VICTORIA,BAY ST & BRIDGE ST,-123.372648,1.0
48.421191,VICTORIA,BELLEVILLE ST # 000400 TO 000499,-123.372537,1.0
48.418075,VICTORIA,MENZIES ST & SUPERIOR ST,-123.372412,4.0
48.44774,SAANICH,DOUGLAS ST & TOLMIE AVE & TOLMIE LANE & TURNING LANE,-123.372381,5.0
48.44774,VICTORIA,DOUGLAS ST & TOLMIE AVE & TOLMIE LANE & TURNING LANE,-123.372381,5.0
48.412104,VICTORIA,GOVERNMENT ST & NIAGARA ST,-123.371989,1.0
48.456642,SAANICH,VERNON AVE & VERNON CRT,-123.371705,1.0
48.41999,VICTORIA,MENZIES ST & QUEBEC ST,-123.371354,1.0
48.417053,VICTORIA,MICHIGAN ST # 000542 TO 000549,-123.371186,2.0
48.420752,VICTORIA,BELLEVILLE ST & MENZIES ST,-123.370924,5.0
48.445033,VICTORIA,DOUGLAS ST & FINLAYSON ST,-123.370717,4.0
48.439577,VICTORIA,GORGE RD E & ROCK BAY AVE,-123.370616,3.0
48.43924,VICTORIA,ELLICE ST & ROCK BAY AVE,-123.370476,1.0
48.426943,VICTORIA,WHARF ST & YATES ST & UNSIGNED,-123.37036,2.0
48.427887,VICTORIA,JOHNSON ST & JOHNSON ST BRIDGE & PANDORA AVE & STORE ST & WADDINGTON ALLEY & WHARF ST & TURNING LANE,-123.370037,2.0
48.425889,VICTORIA,BASTION SQ & WHARF ST,-123.369941,1.0
48.44807,SAANICH,OAK ST & TOLMIE AVE,-123.369775,1.0
48.424742,VICTORIA,WHARF ST # 001000 TO 001099,-123.369769,1.0
48.428549,VICTORIA,GALLOPING GOOSE TRAIL & PANDORA AVE & STORE ST & WHARF ST,-123.369672,1.0
48.450974,SAANICH,BLANSHARD ST & CLOVERDALE AVE & TURNING LANE,-123.369658,1.0
48.429636,VICTORIA,STORE ST & SWIFT ST,-123.369637,1.0
48.414801,VICTORIA,GOVERNMENT ST & MARIFIELD AVE,-123.369579,1.0
48.426787,VICTORIA,COMMERCIAL ALLEY & YATES ST,-123.369415,2.0
48.441891,VICTORIA,BURNSIDE RD E & DOUGLAS ST & DUNEDIN ST & TURNING LANE,-123.369108,8.0
48.42315,VICTORIA,WHARF ST # 000800 TO 000899,-123.369101,1.0
48.42062,VICTORIA,BELLEVILLE ST & GOVERNMENT ST,-123.368935,1.0
48.410153,VICTORIA,BATTERY ST & DALLAS RD & DOUGLAS ST & NIAGARA ST,-123.368848,2.0
48.41827,VICTORIA,GOVERNMENT ST & SUPERIOR ST,-123.368836,2.0
48.424991,VICTORIA,FORT ST & LANGLEY ST,-123.36864,1.0
48.441395,VICTORIA,DOUGLAS ST & TOPAZ AVE & TURNING LANE,-123.368621,1.0
48.491416,SAANICH,THISTLEWOOD DR # 001025 TO 001048,-123.368463,2.0
48.472259,SAANICH,KENNETH ST & QUADRA ST,-123.368371,1.0
48.422922,VICTORIA,GOVERNMENT ST & HUMBOLDT ST & WHARF ST,-123.368301,1.0
48.448248,SAANICH,BLANSHARD ST & TOLMIE AVE,-123.368003,2.0
48.42491,VICTORIA,FORT ST & GOVERNMENT ST,-123.367843,1.0
48.425679,VICTORIA,BASTION SQ & GOVERNMENT ST & VIEW ST,-123.367666,1.0
48.499604,SAANICH,EMILY CARR DR & ROYAL OAK DR,-123.367349,2.0
48.435808,VICTORIA,BAY ST & GOVERNMENT ST,-123.367314,1.0
48.432722,VICTORIA,GOVERNMENT ST & PEMBROKE ST,-123.367198,2.0
48.438353,VICTORIA,DOUGLAS ST & GORGE RD E & GOVERNMENT ST & HILLSIDE AVE & TURNING LANE,-123.367175,8.0
48.431885,VICTORIA,DISCOVERY ST & GOVERNMENT ST,-123.367172,1.0
48.431051,VICTORIA,CHATHAM ST & GOVERNMENT ST,-123.367137,2.0
48.42938,VICTORIA,FISGARD ST & GOVERNMENT ST,-123.367074,1.0
48.424068,VICTORIA,BROAD ST & BROUGHTON ST,-123.366703,1.0
48.424774,VICTORIA,BROAD ST & FORT ST,-123.366561,1.0
48.471157,SAANICH,QUADRA ST # 004000 TO 004049,-123.366463,1.0
48.420228,VICTORIA,BELLEVILLE ST & DOUGLAS ST,-123.366329,2.0
48.426427,VICTORIA,BROAD ST & YATES ST,-123.366267,1.0
48.427356,VICTORIA,BROAD ST & JOHNSON ST,-123.366034,3.0
48.422204,VICTORIA,BURDETT AVE & DOUGLAS ST & HUMBOLDT ST,-123.366007,3.0
48.423141,VICTORIA,COURTNEY ST & DOUGLAS ST,-123.365744,1.0
48.421852,VICTORIA,HUMBOLDT ST # 000700 TO 000739,-123.365622,1.0
48.418505,VICTORIA,BLANSHARD ST & DOUGLAS ST & SOUTHGATE ST & SUPERIOR ST,-123.365616,2.0
48.423873,VICTORIA,BROUGHTON ST & DOUGLAS ST,-123.365536,3.0
48.435715,VICTORIA,BAY ST & DOUGLAS ST,-123.365452,5.0
48.424652,VICTORIA,DOUGLAS ST & FORT ST,-123.365333,10.0
48.4215,VICTORIA,HUMBOLDT ST & PENWILL ST,-123.365236,2.0
48.453057,SAANICH,CALUMET AVE & CLOVERDALE AVE,-123.365189,1.0
48.425439,VICTORIA,DOUGLAS ST & VIEW ST,-123.36508,4.0
48.43497,VICTORIA,DOUGLAS ST & FIELD ST,-123.365028,1.0
48.426281,VICTORIA,DOUGLAS ST & YATES ST,-123.364872,9.0
48.438704,VICTORIA,HILLSIDE AVE & NANAIMO ST & ROSS LANE,-123.36483,1.0
48.434561,VICTORIA,DOUGLAS ST # 002300 TO 002399,-123.364816,1.0
48.426729,VICTORIA,DOUGLAS ST # 001300 TO 001399,-123.364776,1.0
48.427177,VICTORIA,DOUGLAS ST & JOHNSON ST,-123.36468,3.0
48.434152,VICTORIA,DOUGLAS ST & QUEENS AVE,-123.364603,2.0
48.470029,SAANICH,MCKENZIE AVE & QUADRA ST,-123.364594,7.0
48.431939,VICTORIA,DISCOVERY ST & DOUGLAS ST,-123.364563,1.0
48.437687,VICTORIA,HILL ST & ROSS LANE,-123.364519,1.0
48.431099,VICTORIA,CALEDONIA AVE & CHATHAM ST & DOUGLAS ST,-123.364513,2.0
48.428037,VICTORIA,DOUGLAS ST & PANDORA AVE,-123.364472,4.0
48.429408,VICTORIA,DOUGLAS ST & FISGARD ST,-123.364461,1.0
48.441938,VICTORIA,BLANSHARD ST & TOPAZ AVE & TURNING LANE,-123.364452,1.0
48.420527,VICTORIA,BLANSHARD ST & HUMBOLDT ST,-123.363847,2.0
48.439741,VICTORIA,BLANSHARD ST & MARKET ST,-123.363673,1.0
48.438914,VICTORIA,BLANSHARD ST & HILLSIDE AVE & TURNING LANE,-123.363309,1.0
48.512576,SAANICH,CORDOVA BAY RD # 004890 TO 004922,-123.363256,1.0
48.421126,VICTORIA,BLANSHARD ST & FAIRFIELD RD,-123.363082,1.0
48.422674,VICTORIA,BLANSHARD ST & COURTNEY ST,-123.3629,1.0
48.435581,VICTORIA,BAY ST & BLANSHARD ST & TURNING LANE,-123.362734,2.0
48.454331,SAANICH,CLOVERDALE AVE & SAVANNAH AVE,-123.362495,1.0
48.417554,VICTORIA,ARBUTUS WAY & QUADRA ST & SOUTHGATE ST,-123.362486,2.0
48.424322,VICTORIA,BLANSHARD ST & FORT ST,-123.362485,1.0
48.425122,VICTORIA,BLANSHARD ST & VIEW ST,-123.362265,4.0
48.425968,VICTORIA,BLANSHARD ST & YATES ST,-123.362066,3.0
48.430139,VICTORIA,BLANSHARD ST & HERALD ST,-123.36191,1.0
48.448964,SAANICH,QUADRA ST & TOLMIE AVE,-123.36189,2.0
48.448964,VICTORIA,QUADRA ST & TOLMIE AVE,-123.36189,2.0
48.429324,VICTORIA,BLANSHARD ST & FISGARD ST,-123.36188,2.0
48.426853,VICTORIA,BLANSHARD ST & JOHNSON ST,-123.361838,1.0
48.430083,VICTORIA,BLANSHARD ST & NORTH PARK ST,-123.361702,2.0
48.431012,VICTORIA,BLANSHARD ST & CALEDONIA AVE,-123.361692,1.0
48.466399,SAANICH,QUADRA ST & REYNOLDS RD,-123.361649,1.0
48.427723,VICTORIA,BLANSHARD ST & PANDORA AVE,-123.361624,2.0
48.47043,SAANICH,BORDEN ST & LOCHSIDE TRAIL & MCKENZIE AVE,-123.361205,2.0
48.446279,VICTORIA,FINLAYSON ST & QUADRA ST,-123.361152,1.0
48.435463,VICTORIA,BAY ST & DOWLER PL,-123.361033,1.0
48.451798,SAANICH,INVERNESS RD & QUADRA ST,-123.360879,1.0
48.440093,VICTORIA,MARKET ST & WARK ST,-123.360846,1.0
48.439252,VICTORIA,HILLSIDE AVE & WARK ST,-123.360626,2.0
48.460829,SAANICH,FALMOUTH RD & QUADRA ST,-123.360569,1.0
48.419764,VICTORIA,FAIRFIELD RD & QUADRA ST,-123.360459,1.0
48.443212,VICTORIA,QUADRA ST # 002900 TO 002999,-123.360256,1.0
48.422587,VICTORIA,QUADRA ST & ROCKLAND AVE,-123.36006,1.0
48.442511,VICTORIA,QUADRA ST & TOPAZ AVE,-123.360053,1.0
48.424014,VICTORIA,FORT ST & QUADRA ST,-123.359717,4.0
48.502322,SAANICH,MCMORRAN WAY & ROYAL OAK DR,-123.359699,1.0
48.424824,VICTORIA,QUADRA ST & VIEW ST,-123.359509,5.0
48.463648,SAANICH,QUADRA ST & UNION RD,-123.359486,1.0
48.455721,SAANICH,CLOVERDALE AVE & COOK ST & QUADRA ST,-123.35945,1.0
48.425671,VICTORIA,QUADRA ST & YATES ST,-123.359276,3.0
48.439434,VICTORIA,HILLSIDE AVE & QUADRA ST,-123.35918,7.0
48.426563,VICTORIA,JOHNSON ST & QUADRA ST,-123.359065,5.0
48.42746,VICTORIA,PANDORA AVE & QUADRA ST,-123.358982,8.0
48.428059,VICTORIA,MASON ST & QUADRA ST,-123.358968,1.0
48.428514,VICTORIA,CORMORANT ST & QUADRA ST,-123.358915,1.0
48.429011,VICTORIA,BALMORAL RD & FISGARD ST & QUADRA ST,-123.358854,1.0
48.429887,VICTORIA,NORTH PARK ST & QUADRA ST,-123.358747,1.0
48.437498,VICTORIA,KINGS RD & QUADRA ST,-123.358633,4.0
48.430782,VICTORIA,CALEDONIA AVE & QUADRA ST,-123.358624,6.0
48.427358,VICTORIA,PANDORA AVE # 000901 TO 000935,-123.358458,1.0
48.508679,SAANICH,CORDOVA BAY RD & GALEY WAY,-123.358438,1.0
48.432285,VICTORIA,PEMBROKE ST & QUADRA ST,-123.358424,1.0
48.433093,VICTORIA,PRINCESS AVE & QUADRA ST,-123.358311,1.0
48.42387,VICTORIA,FORT ST # 000900 TO 000999,-123.358306,1.0
48.4353,VICTORIA,BAY ST & QUADRA ST,-123.358006,1.0
48.420637,VICTORIA,MCCLURE ST & VANCOUVER ST,-123.357686,1.0
48.412227,VICTORIA,COOK ST & MAY ST,-123.35737,1.0
48.412802,VICTORIA,COOK ST & PARK BLVD,-123.357288,1.0
48.413794,VICTORIA,COOK ST & OLIPHANT AVE,-123.356846,1.0
48.414079,VICTORIA,COOK ST & OXFORD ST,-123.356722,1.0
48.414576,VICTORIA,COOK ST & SUTLEJ ST,-123.35649,1.0
48.426269,VICTORIA,JOHNSON ST & VANCOUVER ST,-123.356311,1.0
48.427203,VICTORIA,PANDORA AVE & VANCOUVER ST,-123.356146,1.0
48.429721,VICTORIA,NORTH PARK ST & VANCOUVER ST,-123.35587,1.0
48.416319,VICTORIA,COOK ST & SOUTHGATE ST,-123.355785,1.0
48.418012,VICTORIA,COOK ST & FAIRFIELD RD,-123.35536,3.0
48.419636,VICTORIA,COOK ST & RICHARDSON ST,-123.354966,1.0
48.411921,VICTORIA,CAMBRIDGE ST & MAY ST,-123.35457,1.0
48.421276,VICTORIA,BURDETT AVE & COOK ST,-123.354568,1.0
48.422915,VICTORIA,COOK ST & MEARES ST,-123.354171,1.0
48.423403,VICTORIA,COOK ST & FORT ST,-123.354054,3.0
48.424197,VICTORIA,COOK ST & VIEW ST,-123.353861,1.0
48.440122,VICTORIA,BLACKWOOD ST & HILLSIDE AVE,-123.353813,2.0
48.42507,VICTORIA,COOK ST & YATES ST,-123.35365,3.0
48.425951,VICTORIA,COOK ST & JOHNSON ST,-123.353452,5.0
48.435047,VICTORIA,BAY ST & PRIOR ST,-123.353393,1.0
48.427148,VICTORIA,COOK ST & PANDORA AVE,-123.353273,2.0
48.427819,VICTORIA,COOK ST & MASON ST & OPAL ST,-123.353194,1.0
48.429075,VICTORIA,COOK ST & GRANT ST,-123.353035,2.0
48.430475,VICTORIA,CALEDONIA AVE & COOK ST,-123.352858,3.0
48.434988,VICTORIA,BAY ST & COOK ST,-123.352295,2.0
48.440379,VICTORIA,COOK ST & HILLSIDE AVE,-123.351746,2.0
48.471918,SAANICH,BLENKINSOP RD & MCKENZIE AVE,-123.351156,2.0
48.421469,VICTORIA,LINDEN AVE & ROCKLAND AVE,-123.350989,1.0
48.434903,VICTORIA,BAY ST & EMPIRE ST,-123.350984,1.0
48.470508,SAANICH,BLENKINSOP RD & GARKIL RD,-123.350709,1.0
48.443708,VICTORIA,TOPAZ AVE # 001300 TO 001369,-123.350598,1.0
48.426427,VICTORIA,CHAMBERS ST & PANDORA AVE & RUDLIN ST,-123.350534,1.0
48.430291,VICTORIA,CALEDONIA AVE & CHAMBERS ST,-123.349937,2.0
48.422958,VICTORIA,FORT ST & ORMOND ST,-123.349781,1.0
48.466918,SAANICH,BLENKINSOP RD & CEDAR HILL CROSS RD & TURNING LANE,-123.34974,2.0
48.440829,VICTORIA,HIGGINS ST & HILLSIDE AVE,-123.349299,3.0
48.463849,SAANICH,PERSIMMON DR # 003800 TO 003913,-123.348797,1.0
48.423229,VICTORIA,CENTRAL MIDDLE SCHOOL ACCESS & FORT ST & MOSS ST,-123.346906,1.0
48.424507,VICTORIA,FERNWOOD RD & YATES ST,-123.34555,2.0
48.425447,VICTORIA,FERNWOOD RD & JOHNSON ST,-123.345455,1.0
48.426835,VICTORIA,FERNWOOD RD & PANDORA AVE,-123.345348,1.0
48.432075,VICTORIA,CENTRE RD & FERNWOOD RD,-123.345076,1.0
48.441294,VICTORIA,CEDAR HILL RD & HILLSIDE AVE,-123.344256,1.0
48.448343,SAANICH,CEDAR HILL GOLF COURSE TRAIL & CEDAR HILL RD & FINLAYSON ST & NORTH DAIRY RD,-123.343944,2.0
48.448343,VICTORIA,CEDAR HILL GOLF COURSE TRAIL & CEDAR HILL RD & FINLAYSON ST & NORTH DAIRY RD,-123.343944,2.0
48.464451,SAANICH,CEDAR HILL CROSS RD & MERRIMAN DR,-123.342982,1.0
48.424624,VICTORIA,FORT ST & STANLEY AVE,-123.342492,1.0
48.424753,VICTORIA,FORT ST & PEMBERTON RD,-123.342089,1.0
48.476587,SAANICH,BEAM CRES & ERIC RD,-123.342088,1.0
48.41999,VICTORIA,ROCKLAND AVE # 001400 TO 001469,-123.341168,1.0
48.483114,SAANICH,CEDAR HILL RD # 004243 TO 004299,-123.339181,1.0
48.457326,SAANICH,CEDAR HILL RD & ROWAN ST,-123.339078,1.0
48.47858,SAANICH,CEDAR HILL RD # 004100 TO 004198,-123.339068,1.0
48.428478,VICTORIA,BEGBIE ST & BELMONT AVE & GRANT ST,-123.338757,1.0
48.45841,SAANICH,CEDAR HILL RD & PEAR ST,-123.338709,1.0
48.419957,VICTORIA,ROCKLAND AVE & ST CHARLES ST,-123.338637,1.0
48.443696,VICTORIA,DONCASTER DR & HILLSIDE AVE,-123.338235,3.0
48.486632,SAANICH,ELNIDO RD & SAN JUAN AVE & SHELBOURNE ST,-123.337493,1.0
48.414476,VICTORIA,BROOKE ST & ST CHARLES ST,-123.337304,1.0
48.4122,VICTORIA,FAIRFIELD RD & ST CHARLES ST,-123.337073,1.0
48.426507,VICTORIA,FORT ST & OAK BAY AVE & PANDORA AVE & VERRINDER AVE,-123.337018,4.0
48.484117,SAANICH,KENMORE RD & SHELBOURNE ST,-123.336959,3.0
48.444698,VICTORIA,HILLSIDE AVE & HILLSIDE SHOPPING CTR & SHAKESPEARE ST,-123.335733,1.0
48.49489,SAANICH,ASH RD & CEDAR HILL RD & CORDOVA BAY RD,-123.335455,1.0
48.468644,SAANICH,CEDAR HILL RD & MCKENZIE AVE,-123.335332,2.0
48.475078,SAANICH,CEDAR HILL RD & FELTHAM RD,-123.335325,1.0
48.470555,SAANICH,ARROW RD & CEDAR HILL RD,-123.334862,1.0
48.445096,VICTORIA,HILLSIDE AVE & HILLSIDE SHOPPING CTR & SCOTT ST,-123.334707,1.0
48.428232,VICTORIA,FERN ST & FORT ST,-123.333476,2.0
48.445684,VICTORIA,HILLSIDE AVE & SHELBOURNE ST,-123.333295,7.0
48.448149,SAANICH,NORTH DAIRY RD & SHELBOURNE ST,-123.333189,2.0
48.448149,VICTORIA,NORTH DAIRY RD & SHELBOURNE ST,-123.333189,2.0
48.452819,SAANICH,KNIGHT AVE & SHELBOURNE ST,-123.333077,1.0
48.456924,SAANICH,DONNELLY AVE & SHELBOURNE ST,-123.333025,1.0
48.458486,SAANICH,PEAR ST & SHELBOURNE ST,-123.332973,4.0
48.461268,SAANICH,CEDAR HILL CROSS RD & SHELBOURNE ST,-123.332958,3.0
48.428402,VICTORIA,BELCHER AVE & FORT ST & LEIGHTON RD,-123.332951,2.0
48.426477,VICTORIA,BELCHER AVE & OAK BAY AVE,-123.332947,1.0
48.464992,SAANICH,MORTIMER ST & SHELBOURNE ST,-123.332822,1.0
48.476017,SAANICH,FELTHAM RD & SHELBOURNE ST,-123.332814,2.0
48.468632,SAANICH,MCKENZIE AVE & SHELBOURNE ST,-123.332734,4.0
48.426463,VICTORIA,OAK BAY AVE & ROCKLAND AVE,-123.33235,1.0
48.460393,SAANICH,CEDAR HILL CROSS RD & RICHMOND RD & ST AIDANS ST,-123.330331,1.0
48.426439,VICTORIA,OAK BAY AVE & RICHMOND AVE,-123.330228,4.0
48.429558,VICTORIA,FORT ST & RICHMOND AVE & RICHMOND RD,-123.330162,1.0
48.433644,SAANICH,BAY ST & RICHMOND RD,-123.329192,4.0
48.433644,VICTORIA,BAY ST & RICHMOND RD,-123.329192,4.0
48.435198,SAANICH,ADANAC ST & RICHMOND RD,-123.328856,2.0
48.435198,VICTORIA,ADANAC ST & RICHMOND RD,-123.328856,2.0
48.426447,VICTORIA,OAK BAY AVE # 001840 TO 001842,-123.327872,1.0
48.440419,SAANICH,RICHMOND RD & TOWNLEY ST,-123.327777,1.0
48.415477,VICTORIA,FAIRFIELD RD & FOUL BAY RD,-123.327571,1.0
48.460493,SAANICH,CEDAR HILL CROSS RD & IONA DR,-123.32638,1.0
48.452005,SAANICH,RICHMOND RD & WOODLEY RD,-123.326238,1.0
48.431497,VICTORIA,FORT ST & LEE AVE,-123.325674,1.0
48.468591,SAANICH,LARCHWOOD DR & MCKENZIE AVE,-123.324585,1.0
48.426444,OAK BAY,FOUL BAY RD & OAK BAY AVE,-123.322724,1.0
48.426444,VICTORIA,FOUL BAY RD & OAK BAY AVE,-123.322724,1.0
48.428416,OAK BAY,FOUL BAY RD & LEIGHTON RD,-123.32264,1.0
48.428416,VICTORIA,FOUL BAY RD & LEIGHTON RD,-123.32264,1.0
48.429001,OAK BAY,FOUL BAY RD & MILTON ST,-123.322601,1.0
48.429001,VICTORIA,FOUL BAY RD & MILTON ST,-123.322601,1.0
48.432172,OAK BAY,CADBORO BAY RD & FORT ST & FOUL BAY RD,-123.322417,4.0
48.432172,VICTORIA,CADBORO BAY RD & FORT ST & FOUL BAY RD,-123.322417,4.0
48.435844,OAK BAY,FOUL BAY RD & HAULTAIN ST,-123.322246,1.0
48.435844,SAANICH,FOUL BAY RD & HAULTAIN ST,-123.322246,1.0
48.446103,OAK BAY,FOUL BAY RD & LANSDOWNE RD,-123.321793,1.0
48.446103,SAANICH,FOUL BAY RD & LANSDOWNE RD,-123.321793,1.0
48.430438,OAK BAY,BEE ST & GOLDSMITH ST,-123.321344,2.0
48.432395,OAK BAY,BEE ST & CADBORO BAY RD & FLORENCE ST,-123.32092,1.0
48.484296,SAANICH,HALLIDAY PL & TYNDALL AVE,-123.320912,1.0
48.425145,OAK BAY,GRANITE ST & MITCHELL ST,-123.320673,1.0
48.479798,SAANICH,PALAMOS ST & VALENCIA PL,-123.320089,1.0
48.468569,SAANICH,GORDON HEAD RD & MCKENZIE AVE & TURNING LANE,-123.319482,2.0
48.4265,OAK BAY,ELGIN RD & OAK BAY AVE,-123.319336,1.0
48.424181,OAK BAY,BRIGHTON AVE & VICTORIA AVE,-123.318597,1.0
48.432782,OAK BAY,CADBORO BAY RD # 002118 TO 002149,-123.318498,1.0
48.416613,OAK BAY,CENTRAL AVE & VICTORIA AVE,-123.317976,1.0
48.447321,OAK BAY,HENDERSON RD & WESTDOWNE RD,-123.317641,1.0
48.426512,OAK BAY,OAK BAY AVE & WILMOT PL,-123.316855,1.0
48.426496,OAK BAY,HAMPSHIRE RD & OAK BAY AVE,-123.315884,1.0
48.426471,OAK BAY,MONTEREY AVE & OAK BAY AVE,-123.314105,3.0
48.433964,OAK BAY,BOWKER AVE & CADBORO BAY RD,-123.313223,1.0
48.420212,OAK BAY,MCNEILL AVE & OLIVER ST,-123.312911,1.0
48.49394,SAANICH,BALMACARRA RD & LEYNS RD,-123.311733,1.0
48.437779,OAK BAY,ESTEVAN AVE & HAMIOTA ST & MUSGRAVE ST & THOMPSON AVE,-123.308359,1.0
48.423569,OAK BAY,NEWPORT AVE & WINDSOR RD,-123.306471,1.0
48.463305,SAANICH,CADBORO HEIGHTS LANE # 002482 TO 002493,-123.300039,1.0
48.770425,PENDER ISLAND,BOSUN WAY & KETCH RD,-123.28402,1.0
49.359347,WEST VANCOUVER,EAGLERIDGE DR & RAVEN PL,-123.27525,1.0
49.374087,WEST VANCOUVER,ROYAL AVE # 006600 TO 006699,-123.274572,1.0
49.373875,WEST VANCOUVER,KEITH RD # 006600 TO 006768,-123.272954,1.0
49.374313,WEST VANCOUVER,BAY ST & KEITH RD,-123.272868,1.0
49.358291,WEST VANCOUVER,MARINE DR # 005778 TO 005835,-123.269284,1.0
49.34676,WEST VANCOUVER,KEW RD & MARINE DR,-123.266381,1.0
49.342148,WEST VANCOUVER,KEITH RD & THE DALE,-123.260483,1.0
49.343958,WEST VANCOUVER,HEADLAND CRT & HEADLAND DR,-123.257916,1.0
49.2684,UBC,CRESCENT RD # 006300 TO 006379,-123.256916,1.0
49.270077,UBC,NW MARINE DR # 006200 TO 006313,-123.256088,1.0
49.26401,UBC,UNIVERSITY BLVD & WEST MALL,-123.255027,1.0
49.27065,UBC,CECIL GREEN PARK RD & NW MARINE DR,-123.254938,1.0
49.350787,WEST VANCOUVER,CAULFEILD DR & HEADLAND DR,-123.252123,1.0
49.266078,UBC,UNIVERSITY BLVD # 005901 TO 006149,-123.247537,1.0
49.350853,WEST VANCOUVER,CAULFEILD DR & ESTEVAN PL,-123.24733,1.0
49.251947,UBC,SW MARINE DR & W 16TH AVE & TURNING LANE,-123.246616,1.0
49.267589,UBC,WESBROOK MALL & ACCESS ROAD,-123.246594,1.0
49.260101,UBC,EAST MALL & THUNDERBIRD BLVD,-123.245848,1.0
49.266373,UBC,UNIVERSITY BLVD & WESBROOK MALL,-123.245496,4.0
49.266619,UBC,UNIVERSITY BLVD & WESTERN PKY,-123.244083,1.0
49.262856,UBC,AGRONOMY RD & WESBROOK MALL & TURNING LANE,-123.24257,1.0
49.34485,WEST VANCOUVER,KEITH RD # 004380 TO 004429,-123.24231,1.0
49.261611,UBC,THUNDERBIRD BLVD & WESBROOK MALL,-123.241489,2.0
49.254174,UBC,EAST MALL & ROSS DR & W 16TH AVE,-123.241094,1.0
49.251699,UBC,BIRNEY AVE & ROSS DR,-123.237852,1.0
49.257415,UBC,HAMPTON PL & WESBROOK MALL & ACCESS ROAD,-123.237808,1.0
49.255755,UBC,W 16TH AVE & WESBROOK MALL,-123.236346,2.0
49.253514,UBC,BIRNEY AVE & SHRUM LANE,-123.235282,1.0
49.253734,UBC,BIRNEY AVE & WESBROOK MALL,-123.234633,2.0
49.249998,UBC,WESBROOK MALL # 003800 TO 003899,-123.232375,1.0
49.253159,UBC,BINNING RD & GRAY AVE,-123.230036,1.0
49.263927,UBC,BLANCA ST & UNIVERSITY BLVD & W 10TH AVE,-123.215243,3.0
49.263927,VANCOUVER,BLANCA ST & UNIVERSITY BLVD & W 10TH AVE,-123.215243,3.0
49.26388,VANCOUVER,TOLMIE ST & W 10TH AVE,-123.212129,1.0
49.269061,VANCOUVER,TOLMIE ST & W 4TH AVE,-123.211945,1.0
49.274921,VANCOUVER,NW MARINE DR & TOLMIE ST,-123.211733,1.0
49.258299,UBC,SASAMAT ST & W 16TH AVE & PARK ACCESS ROAD,-123.209312,1.0
49.258299,VANCOUVER,SASAMAT ST & W 16TH AVE & PARK ACCESS ROAD,-123.209312,1.0
49.263835,VANCOUVER,SASAMAT ST & W 10TH AVE,-123.20912,3.0
49.34138,WEST VANCOUVER,MARINE DR # 003250 TO 003369,-123.208675,1.0
49.261987,VANCOUVER,W 12TH AVE # 004400 TO 004499,-123.207665,1.0
49.263813,VANCOUVER,W 10TH AVE # 004400 TO 004499,-123.207605,2.0
49.216936,RICHMOND,FERGUSON RD # 000966 TO 001000,-123.206611,1.0
49.262854,VANCOUVER,TRIMBLE ST & W 11TH AVE,-123.206121,1.0
49.26379,VANCOUVER,TRIMBLE ST & W 10TH AVE,-123.20609,2.0
49.272937,VANCOUVER,NW MARINE DR & TRIMBLE ST,-123.205724,1.0
49.237255,UBC,KULLAHUN DR & SW MARINE DR,-123.205321,1.0
49.237255,VANCOUVER,KULLAHUN DR & SW MARINE DR,-123.205321,1.0
49.263767,VANCOUVER,W 10TH AVE # 004300 TO 004399,-123.204551,1.0
49.263647,VANCOUVER,CAMOSUN ST & W 10TH AVE,-123.19697,1.0
49.228215,VANCOUVER,CROWN ST # 006400 TO 006499,-123.196351,1.0
49.263624,VANCOUVER,CROWN ST & W 10TH AVE,-123.193912,1.0
49.234772,VANCOUVER,CROWN ST & W 41ST AVE,-123.193723,1.0
49.135202,RICHMOND,SPRINGMONT GATE # 010800 TO 010929,-123.191555,1.0
49.242427,VANCOUVER,W 33RD AVE & WALLACE ST,-123.190922,1.0
49.23373,VANCOUVER,WALLACE ST # 005700 TO 005899,-123.190915,1.0
49.268667,VANCOUVER,W 4TH AVE & WALLACE ST,-123.190655,1.0
49.155647,RICHMOND,BLUNDELL RD & GABRIOLA GATE,-123.189768,1.0
49.234781,VANCOUVER,OLYMPIC ST & W 41ST AVE,-123.189627,1.0
49.27195,VANCOUVER,POINT GREY RD # 003800 TO 003850,-123.188495,1.0
49.257956,VANCOUVER,HIGHBURY ST & W 16TH AVE,-123.188007,1.0
49.263533,VANCOUVER,HIGHBURY ST & W 10TH AVE,-123.187814,1.0
49.265263,VANCOUVER,HIGHBURY ST & W 8TH AVE,-123.187733,2.0
49.146692,RICHMOND,ROSAMOND AVE # 003300 TO 003799,-123.18721,1.0
49.126432,RICHMOND,4TH AVE & CHATHAM ST,-123.187194,1.0
49.234783,VANCOUVER,ALMA ST & W 41ST AVE,-123.186817,1.0
49.262547,VANCOUVER,ALMA ST & W 11TH AVE,-123.185921,1.0
49.263481,VANCOUVER,ALMA ST & W 10TH AVE,-123.185898,1.0
49.264369,VANCOUVER,ALMA ST & W BROADWAY,-123.185879,1.0
49.265246,VANCOUVER,ALMA ST & W 8TH AVE,-123.185828,1.0
49.268179,VANCOUVER,ALMA ST # 002000 TO 002099,-123.185707,1.0
49.268607,VANCOUVER,ALMA ST & W 4TH AVE,-123.185686,3.0
49.335705,WEST VANCOUVER,26TH ST & MARINE DR,-123.185589,1.0
49.230182,VANCOUVER,DUNBAR ST & SW MARINE DR,-123.185432,1.0
49.234768,VANCOUVER,DUNBAR ST & W 41ST AVE,-123.185324,7.0
49.247125,VANCOUVER,DUNBAR ST & W 28TH AVE,-123.185261,2.0
49.242377,VANCOUVER,DUNBAR ST & W 33RD AVE,-123.185247,3.0
49.241419,VANCOUVER,DUNBAR ST & W 34TH AVE,-123.185245,1.0
49.244271,VANCOUVER,DUNBAR ST & W 31ST AVE,-123.185244,3.0
49.249021,VANCOUVER,DUNBAR ST & W 26TH AVE,-123.185201,1.0
49.250062,VANCOUVER,DUNBAR ST & W KING EDWARD AVE,-123.185196,3.0
49.251052,VANCOUVER,DUNBAR ST & W 24TH AVE,-123.185189,2.0
49.257924,VANCOUVER,DUNBAR ST & W 16TH AVE,-123.185117,3.0
49.124067,RICHMOND,BAYVIEW ST # 003751 TO 003899,-123.183487,1.0
49.26687,VANCOUVER,W 6TH AVE # 003500 TO 003599,-123.182735,1.0
49.334934,WEST VANCOUVER,25TH ST & MARINE DR,-123.182413,2.0
49.234763,VANCOUVER,COLLINGWOOD ST & W 41ST AVE,-123.182031,1.0
49.25104,VANCOUVER,COLLINGWOOD ST & W 24TH AVE,-123.181858,1.0
49.270348,VANCOUVER,COLLINGWOOD ST & W 2ND AVE,-123.181644,2.0
49.159179,RICHMOND,MORESBY DR # 003900 TO 003999,-123.181643,1.0
49.141033,RICHMOND,NO 1 RD & WILLIAMS RD,-123.181365,3.0
49.142839,RICHMOND,DESMOND AVE & NO 1 RD & PETERSON GATE,-123.181361,2.0
49.144248,RICHMOND,NO 1 RD & PENDLEBURY RD,-123.181351,1.0
49.148331,RICHMOND,FRANCIS RD & NO 1 RD,-123.18133,5.0
49.136011,RICHMOND,FUNDY GATE & NO 1 RD,-123.181316,1.0
49.133761,RICHMOND,NO 1 RD & STEVESTON HWY,-123.181304,5.0
49.149313,RICHMOND,NO 1 RD # 008571 TO 008999,-123.181288,1.0
49.130244,RICHMOND,GEORGIA ST & NO 1 RD,-123.181257,1.0
49.12928,RICHMOND,GARRY ST & NO 1 RD,-123.181247,2.0
49.150295,RICHMOND,NO 1 RD & YOUNGMORE RD,-123.181245,1.0
49.170131,RICHMOND,NO 1 RD & WESTMINSTER HWY,-123.181235,5.0
49.127373,RICHMOND,BROADWAY ST & NO 1 RD,-123.181223,1.0
49.12648,RICHMOND,CHATHAM ST & NO 1 RD,-123.181215,1.0
49.162822,RICHMOND,GRANVILLE AVE & NO 1 RD,-123.181203,3.0
49.153401,RICHMOND,NO 1 RD & PACEMORE AVE,-123.181153,1.0
49.155663,RICHMOND,BLUNDELL RD & NO 1 RD,-123.181077,4.0
49.148336,RICHMOND,FRANCIS RD # 004000 TO 004109,-123.180656,1.0
49.26339,VANCOUVER,W 10TH AVE & WATERLOO ST,-123.179842,1.0
49.268535,VANCOUVER,W 4TH AVE & WATERLOO ST,-123.17971,2.0
49.334168,WEST VANCOUVER,24TH ST & MARINE DR,-123.179267,1.0
49.33837,WEST VANCOUVER,24TH ST & MATHERS AVE,-123.179076,1.0
49.125168,RICHMOND,EASTHOPE AVE & MONCTON ST,-123.178802,1.0
49.123285,RICHMOND,BAYVIEW ST & EASTHOPE AVE,-123.1788,1.0
49.23476,VANCOUVER,BLENHEIM ST & W 41ST AVE,-123.178714,2.0
49.23012,VANCOUVER,BLENHEIM ST & SW MARINE DR,-123.178705,1.0
49.242358,VANCOUVER,BLENHEIM ST & W 33RD AVE,-123.178645,1.0
49.250036,VANCOUVER,BLENHEIM ST & W KING EDWARD AVE,-123.178634,1.0
49.245192,VANCOUVER,BLENHEIM ST & W 30TH AVE,-123.178609,1.0
49.246153,VANCOUVER,BLENHEIM ST & W 29TH AVE,-123.178596,1.0
49.257817,VANCOUVER,BLENHEIM ST & W 16TH AVE & TURNING LANE,-123.178092,1.0
49.26336,VANCOUVER,BLENHEIM ST & W 10TH AVE,-123.177838,1.0
49.264235,VANCOUVER,BLENHEIM ST & W BROADWAY,-123.177798,2.0
49.268502,VANCOUVER,BLENHEIM ST & W 4TH AVE,-123.17769,2.0
49.19206,RICHMOND,GRANT MCCONACHIE WAY # 003200 TO 003254,-123.17736,8.0
49.264219,VANCOUVER,W BROADWAY # 003200 TO 003299,-123.176849,1.0
49.26333,VANCOUVER,TRUTCH ST & W 10TH AVE,-123.17593,1.0
49.242355,VANCOUVER,BALACLAVA ST & W 33RD AVE,-123.175748,1.0
49.247085,VANCOUVER,BALACLAVA ST & W 28TH AVE,-123.175733,1.0
49.264188,VANCOUVER,W BROADWAY # 003100 TO 003199,-123.174946,1.0
49.333113,WEST VANCOUVER,23RD ST & MARINE DR,-123.174926,1.0
49.191789,RICHMOND,GRANT MCCONACHIE WAY # 003600 TO 003878,-123.174431,1.0
49.263301,VANCOUVER,BALACLAVA ST & W 10TH AVE,-123.174022,1.0
49.264173,VANCOUVER,BALACLAVA ST & W BROADWAY,-123.173993,1.0
49.133749,RICHMOND,STEVESTON HWY & TRIMARAN GATE,-123.173631,1.0
49.346509,WEST VANCOUVER,FOLKESTONE WAY # 002350 TO 002399,-123.173466,1.0
49.234734,VANCOUVER,CARNARVON ST & W 41ST AVE,-123.173066,3.0
49.235454,VANCOUVER,CARNARVON ST # 005600 TO 005647,-123.173059,1.0
49.264157,VANCOUVER,W BROADWAY # 003000 TO 003099,-123.173025,1.0
49.257737,VANCOUVER,CARNARVON ST & W 16TH AVE,-123.172271,1.0
49.264141,VANCOUVER,CARNARVON ST & W BROADWAY,-123.172058,6.0
49.227367,VANCOUVER,CEDARHURST ST & SW MARINE DR & W 49TH AVE,-123.171556,1.0
49.259635,VANCOUVER,W 14TH AVE # 002900 TO 002999,-123.171287,1.0
49.264126,VANCOUVER,BAYSWATER ST & W BROADWAY,-123.171241,3.0
49.250792,VANCOUVER,PUGET DR # 004030 TO 004079,-123.171191,1.0
49.268422,VANCOUVER,BAYSWATER ST & W 4TH AVE,-123.171072,2.0
49.269292,VANCOUVER,BAYSWATER ST & W 3RD AVE,-123.171051,1.0
49.33259,WEST VANCOUVER,22ND ST & GORDON AVE,-123.17096,1.0
49.335072,WEST VANCOUVER,22ND ST # 001100 TO 001199,-123.17086,1.0
49.123086,RICHMOND,BRITANNIA DR & RAILWAY AVE,-123.170535,1.0
49.258694,VANCOUVER,MACKENZIE ST & W 15TH AVE,-123.170412,1.0
49.234719,VANCOUVER,MACKENZIE ST & W 41ST AVE,-123.170253,1.0
49.242335,VANCOUVER,MACKENZIE ST & W 33RD AVE,-123.170218,4.0
49.263242,VANCOUVER,MACKENZIE ST & W 10TH AVE,-123.170152,4.0
49.155611,RICHMOND,BLUNDELL RD & RAILWAY AVE,-123.169835,3.0
49.157053,RICHMOND,LANCING RD & RAILWAY AVE,-123.169834,2.0
49.160277,RICHMOND,LINFIELD GATE & RAILWAY AVE,-123.16983,1.0
49.141022,RICHMOND,RAILWAY AVE & WILLIAMS RD,-123.169818,2.0
49.148393,RICHMOND,FRANCIS RD & RAILWAY AVE,-123.169815,4.0
49.1468,RICHMOND,MAPLE RD & RAILWAY AVE,-123.169814,1.0
49.133732,RICHMOND,RAILWAY AVE & STEVESTON HWY,-123.169803,3.0
49.125125,RICHMOND,MONCTON ST & RAILWAY AVE,-123.169788,1.0
49.162539,RICHMOND,GRANVILLE AVE & JN BURNETT SECONDARY SCHOOL ACCESS & RAILWAY AVE & TURNING LANE,-123.169296,1.0
49.257668,VANCOUVER,MACDONALD ST & W 16TH AVE,-123.168378,7.0
49.157047,RICHMOND,LANCING RD & LINDSAY RD,-123.168368,1.0
49.266636,VANCOUVER,MACDONALD ST & W 6TH AVE,-123.168358,1.0
49.260473,VANCOUVER,MACDONALD ST & W 13TH AVE,-123.168292,1.0
49.26838,VANCOUVER,MACDONALD ST & W 4TH AVE,-123.168279,4.0
49.26408,VANCOUVER,MACDONALD ST & W BROADWAY,-123.16816,8.0
49.328382,WEST VANCOUVER,21ST ST # 000100 TO 000199,-123.1681,1.0
49.329877,WEST VANCOUVER,21ST ST & MARINE DR,-123.168076,2.0
49.177581,RICHMOND,INGLIS DR # 004652 TO 004999,-123.168021,1.0
49.341848,WEST VANCOUVER,21ST ST & QUEENS AVE,-123.167956,1.0
49.248127,VANCOUVER,MACDONALD ST & PUGET DR & W KING EDWARD AVE & TURNING LANE,-123.167857,3.0
49.234729,VANCOUVER,MACDONALD ST & W 41ST AVE,-123.167394,1.0
49.261463,VANCOUVER,KITSILANO DIVERSION & STEPHENS ST & W 12TH AVE & TURNING LANE,-123.166759,1.0
49.193729,RICHMOND,AVIATION AVE & NORTH SERVICE RD & TURNING LANE,-123.166714,1.0
49.248165,VANCOUVER,W KING EDWARD AVE # 002701 TO 002799,-123.16661,1.0
49.264049,VANCOUVER,STEPHENS ST & W BROADWAY,-123.166486,1.0
49.265769,VANCOUVER,STEPHENS ST & W 7TH AVE,-123.166436,1.0
49.132811,RICHMOND,SWALLOW DR # 011051 TO 011133,-123.166412,1.0
49.268353,VANCOUVER,STEPHENS ST & W 4TH AVE,-123.166346,1.0
49.234729,VANCOUVER,TRAFALGAR ST & W 41ST AVE,-123.165832,1.0
49.256396,VANCOUVER,TRAFALGAR ST & W 18TH AVE,-123.165093,1.0
49.261187,VANCOUVER,TRAFALGAR ST & W 12TH AVE,-123.164778,1.0
49.26404,VANCOUVER,TRAFALGAR ST & W BROADWAY,-123.164639,2.0
49.170137,RICHMOND,LYNAS LANE & WESTMINSTER HWY,-123.164497,1.0
49.227283,VANCOUVER,ELM ST & W 49TH AVE,-123.164447,1.0
49.271878,VANCOUVER,TRAFALGAR ST & YORK AVE,-123.164411,1.0
49.328713,WEST VANCOUVER,19TH ST & MARINE DR,-123.164353,1.0
49.327731,WEST VANCOUVER,19TH ST & BELLEVUE AVE,-123.164344,2.0
49.234702,VANCOUVER,ELM ST & W 41ST AVE,-123.164156,2.0
49.133621,RICHMOND,LASSAM RD & STEVESTON HWY,-123.163734,1.0
49.156669,RICHMOND,LANCING RD # 005450 TO 005649,-123.163674,1.0
49.268305,VANCOUVER,W 4TH AVE # 002500 TO 002599,-123.163398,1.0
49.232838,VANCOUVER,LARCH ST & W 43RD AVE,-123.162801,1.0
49.234685,VANCOUVER,LARCH ST & W 41ST AVE,-123.162749,1.0
49.260215,VANCOUVER,LARCH ST & W 13TH AVE,-123.162562,1.0
49.263983,VANCOUVER,LARCH ST & W BROADWAY,-123.16241,1.0
49.266549,VANCOUVER,LARCH ST & W 6TH AVE,-123.162328,1.0
49.328607,WEST VANCOUVER,18TH ST & MARINE DR,-123.162238,1.0
49.327705,WEST VANCOUVER,18TH ST & BELLEVUE AVE,-123.162211,3.0
49.234676,VANCOUVER,BALSAM ST & W 41ST AVE,-123.161343,1.0
49.150622,RICHMOND,CAMDEN CRES # 008500 TO 008599,-123.161112,1.0
49.156671,RICHMOND,LANCING RD & LANGTON RD,-123.160423,1.0
49.328629,WEST VANCOUVER,17TH ST & MARINE DR,-123.160238,3.0
49.227221,VANCOUVER,VINE ST & W 49TH AVE,-123.160143,1.0
49.234653,VANCOUVER,VINE ST & W 41ST AVE,-123.159937,1.0
49.26825,VANCOUVER,BALSAM ST & W 4TH AVE,-123.159845,4.0
49.270012,VANCOUVER,BALSAM ST & W 2ND AVE,-123.159792,1.0
49.770156,SQUAMISH,AXEN RD # 000962 TO 001079,-123.159386,1.0
49.143915,RICHMOND,NO 2 RD & WOODWARDS RD,-123.158971,2.0
49.148344,RICHMOND,FRANCIS RD & NO 2 RD,-123.158969,4.0
49.141005,RICHMOND,NO 2 RD & WILLIAMS RD,-123.158965,3.0
49.146801,RICHMOND,MAPLE RD & NO 2 RD,-123.158954,1.0
49.155579,RICHMOND,BLUNDELL RD & NO 2 RD,-123.15893,4.0
49.329739,WEST VANCOUVER,16TH ST & DUCHESS AVE,-123.158922,1.0
49.327674,WEST VANCOUVER,16TH ST & BELLEVUE AVE,-123.158915,1.0
49.328619,WEST VANCOUVER,16TH ST & MARINE DR,-123.158906,1.0
49.127774,RICHMOND,KITTIWAKE DR & NO 2 RD,-123.15889,1.0
49.121855,RICHMOND,ANDREWS RD & NO 2 RD,-123.15888,3.0
49.124986,RICHMOND,MONCTON ST & NO 2 RD,-123.158878,2.0
49.133533,RICHMOND,NO 2 RD & STEVESTON HWY,-123.158859,2.0
49.162744,RICHMOND,GRANVILLE AVE & NO 2 RD,-123.158853,5.0
49.164617,RICHMOND,GARRISON RD & NO 2 RD,-123.158822,1.0
49.227203,VANCOUVER,W 49TH AVE & YEW ST,-123.15881,1.0
49.17015,RICHMOND,NO 2 RD & WESTMINSTER HWY & TURNING LANE,-123.158805,4.0
49.269993,VANCOUVER,W 2ND AVE # 002300 TO 002399,-123.158618,1.0
49.234628,VANCOUVER,W 41ST AVE & YEW ST,-123.158501,6.0
49.236476,VANCOUVER,W 39TH AVE & YEW ST,-123.158473,1.0
49.238343,VANCOUVER,W 37TH AVE & YEW ST,-123.158396,1.0
49.262931,VANCOUVER,VINE ST & W 10TH AVE,-123.15767,1.0
49.2639,VANCOUVER,VINE ST & W BROADWAY,-123.157641,1.0
49.265649,VANCOUVER,VINE ST & W 7TH AVE,-123.157618,1.0
49.266491,VANCOUVER,VINE ST & W 6TH AVE,-123.157571,1.0
49.267337,VANCOUVER,VINE ST & W 5TH AVE,-123.157547,1.0
49.268186,VANCOUVER,VINE ST & W 4TH AVE,-123.157502,3.0
49.269092,VANCOUVER,VINE ST & W 3RD AVE,-123.157474,1.0
49.272622,VANCOUVER,CORNWALL AVE & VINE ST,-123.157361,1.0
49.331571,WEST VANCOUVER,15TH ST & FULTON AVE,-123.157008,1.0
49.338166,WEST VANCOUVER,15TH ST & MATHERS AVE,-123.156937,3.0
49.330573,WEST VANCOUVER,15TH ST & ESQUIMALT AVE,-123.156913,2.0
49.328325,WEST VANCOUVER,15TH ST & MARINE DR,-123.156774,3.0
49.328779,WEST VANCOUVER,15TH ST & CLYDE AVE,-123.156762,2.0
49.329686,WEST VANCOUVER,15TH ST & DUCHESS AVE,-123.156762,1.0
49.235577,VANCOUVER,W 40TH AVE # 002100 TO 002199,-123.15664,1.0
49.22988,VANCOUVER,W 46TH AVE & WEST BOULEVARD,-123.155761,1.0
49.330554,WEST VANCOUVER,ESQUIMALT AVE # 001400 TO 001499,-123.15557,1.0
49.23358,VANCOUVER,W 42ND AVE & WEST BOULEVARD,-123.155564,2.0
49.235567,VANCOUVER,W 40TH AVE & WEST BOULEVARD,-123.15554,1.0
49.236433,VANCOUVER,W 39TH AVE & WEST BOULEVARD,-123.155513,2.0
49.23086,VANCOUVER,ARBUTUS GREENWAY & EAST BOULEVARD & W 45TH AVE & WEST BOULEVARD,-123.155411,1.0
49.262898,VANCOUVER,W 10TH AVE & YEW ST,-123.155334,1.0
49.26386,VANCOUVER,W BROADWAY & YEW ST,-123.155298,3.0
49.234575,VANCOUVER,ARBUTUS GREENWAY & EAST BOULEVARD & W 41ST AVE & WEST BOULEVARD,-123.155268,10.0
49.265618,VANCOUVER,W 7TH AVE & YEW ST,-123.155235,1.0
49.238285,VANCOUVER,ARBUTUS GREENWAY & ARBUTUS ST & EAST BOULEVARD & POINT GREY SECONDARY SCHOOL ACCESS & W 37TH AVE & WEST BOULEVARD,-123.155147,1.0
49.268152,VANCOUVER,W 4TH AVE & YEW ST,-123.155141,3.0
49.269057,VANCOUVER,W 3RD AVE & YEW ST,-123.155106,1.0
49.270821,VANCOUVER,W 1ST AVE & YEW ST,-123.155043,1.0
49.233602,VANCOUVER,EAST BOULEVARD & W 42ND AVE,-123.155027,2.0
49.272584,VANCOUVER,CORNWALL AVE & YEW ST,-123.154979,1.0
49.233596,VANCOUVER,W 42ND AVE # 002076 TO 002099,-123.154685,1.0
49.327163,WEST VANCOUVER,14TH ST & ARGYLE AVE & BELLEVUE AVE,-123.154456,1.0
49.327919,WEST VANCOUVER,14TH ST & MARINE DR,-123.15437,2.0
49.337257,WEST VANCOUVER,14TH ST & LAWSON AVE,-123.154164,2.0
49.26904,VANCOUVER,W 3RD AVE # 002100 TO 002199,-123.153922,1.0
49.700399,SQUAMISH,SECOND AVE & WINNIPEG ST,-123.15349,1.0
49.242116,VANCOUVER,ARBUTUS ST & W 33RD AVE,-123.153482,3.0
49.245181,VANCOUVER,ARBUTUS ST & VALLEY DR,-123.153329,6.0
49.260049,VANCOUVER,ARBUTUS ST & W 13TH AVE,-123.153096,2.0
49.251529,VANCOUVER,ARBUTUS GREENWAY & ARBUTUS ST & W KING EDWARD AVE,-123.15308,4.0
49.258215,VANCOUVER,ARBUTUS ST & W 15TH AVE,-123.153076,2.0
49.261003,VANCOUVER,ARBUTUS ST & W 12TH AVE,-123.15306,3.0
49.261943,VANCOUVER,ARBUTUS ST & W 11TH AVE,-123.153001,2.0
49.262861,VANCOUVER,ARBUTUS ST & W 10TH AVE,-123.152974,2.0
49.263821,VANCOUVER,ARBUTUS ST & W BROADWAY,-123.152938,7.0
49.26476,VANCOUVER,ARBUTUS ST & W 8TH AVE,-123.152883,2.0
49.265582,VANCOUVER,ARBUTUS ST & W 7TH AVE,-123.152874,1.0
49.267248,VANCOUVER,ARBUTUS ST & W 5TH AVE,-123.152814,1.0
49.268116,VANCOUVER,ARBUTUS ST & W 4TH AVE,-123.152773,4.0
49.269023,VANCOUVER,ARBUTUS ST & W 3RD AVE,-123.152738,1.0
49.257288,VANCOUVER,ARBUTUS GREENWAY & ARBUTUS ST & EAST BOULEVARD & W 16TH AVE,-123.152709,4.0
49.707945,SQUAMISH,BUCKLEY AVE & CARSON PL,-123.152611,1.0
49.272549,VANCOUVER,ARBUTUS ST & CORNWALL AVE,-123.152601,2.0
49.170167,RICHMOND,ELMBRIDGE WAY & WESTMINSTER HWY,-123.152518,2.0
49.261005,VANCOUVER,ARBUTUS GREENWAY & W 12TH AVE,-123.152508,1.0
49.69997,SQUAMISH,CLEVELAND AVE & WINNIPEG ST,-123.152215,1.0
49.326831,WEST VANCOUVER,13TH ST & ARGYLE AVE & BELLEVUE AVE & PAR 3 RD,-123.152176,1.0
49.133518,RICHMOND,CONSTABLE GATE & STEVESTON HWY,-123.15177,1.0
49.327587,WEST VANCOUVER,13TH ST & KEITH RD & MARINE DR,-123.151627,2.0
49.181251,RICHMOND,GILBERT RD & RUSS BAKER WAY & TURNING LANE,-123.151581,1.0
49.268099,VANCOUVER,W 4TH AVE # 002000 TO 002099,-123.151581,1.0
49.170164,RICHMOND,AZURE BLVD & WESTMINSTER HWY,-123.151185,1.0
49.140972,RICHMOND,SHERIDAN RD & WILLIAMS RD,-123.150893,1.0
49.701572,SQUAMISH,CLEVELAND AVE & PEMBERTON AVE,-123.150875,3.0
49.263782,VANCOUVER,MAPLE ST & W BROADWAY,-123.150543,1.0
49.720298,SQUAMISH,DISCOVERY WAY # 039000 TO 039299,-123.150491,1.0
49.268081,VANCOUVER,MAPLE ST & W 4TH AVE,-123.150389,4.0
49.269864,VANCOUVER,MAPLE ST & W 2ND AVE,-123.150352,1.0
49.343264,WEST VANCOUVER,CROSS CREEK RD & RENTON RD & TYROL RD,-123.15028,1.0
49.272513,VANCOUVER,CORNWALL AVE & MAPLE ST,-123.150222,1.0
49.219479,VANCOUVER,ARBUTUS GREENWAY & CYPRESS ST & EAST BOULEVARD & W 57TH AVE & WEST BOULEVARD,-123.150094,2.0
49.155594,RICHMOND,BLUNDELL RD & MINLER RD,-123.149918,1.0
49.260993,VANCOUVER,W 12TH AVE # 001900 TO 001999,-123.149442,1.0
49.242052,VANCOUVER,CYPRESS ST & VALLEY DR & W 33RD AVE,-123.149436,1.0
49.170125,RICHMOND,WESTMINSTER HWY # 006804 TO 006998,-123.149396,1.0
49.70346,SQUAMISH,BUCKLEY AVE & CLEVELAND AVE & HUNTER PL,-123.14903,2.0
49.209472,VANCOUVER,ANGUS DR & SW MARINE DR,-123.148711,1.0
49.17465,RICHMOND,HOLLYBRIDGE WAY & RIVER RD,-123.148688,1.0
49.257221,VANCOUVER,CYPRESS ST & W 16TH AVE,-123.148371,1.0
49.217746,VANCOUVER,ANGUS DR & W 59TH AVE,-123.148313,1.0
49.228892,VANCOUVER,W 47TH AVE # 001800 TO 001849,-123.148274,1.0
49.260976,VANCOUVER,CYPRESS ST & W 12TH AVE,-123.14825,2.0
49.262787,VANCOUVER,CYPRESS ST & W 10TH AVE,-123.14818,1.0
49.29269,VANCOUVER,STANLEY PARK DR # 008832 TO 008975,-123.148078,1.0
49.267203,VANCOUVER,CYPRESS ST & W 5TH AVE,-123.148017,1.0
49.268045,VANCOUVER,CYPRESS ST & W 4TH AVE,-123.147977,1.0
49.268954,VANCOUVER,CYPRESS ST & W 3RD AVE,-123.147945,3.0
49.718229,SQUAMISH,FINCH DR & HWY 99 & INDUSTRIAL WAY & TURNING LANE,-123.147896,1.0
49.270704,VANCOUVER,CYPRESS ST & W 1ST AVE,-123.147876,3.0
49.139572,RICHMOND,GILBERT RD & PETTS RD,-123.147859,1.0
49.143816,RICHMOND,GILBERT CRES & GILBERT RD & GILHURST GATE & WOODWARDS RD,-123.147858,2.0
49.148298,RICHMOND,FRANCIS RD & GILBERT RD,-123.147831,2.0
49.272475,VANCOUVER,CORNWALL AVE & CYPRESS ST,-123.147806,4.0
49.133513,RICHMOND,GILBERT RD & STEVESTON HWY,-123.147802,2.0
49.155594,RICHMOND,BLUNDELL RD & GILBERT RD,-123.1478,3.0
49.161885,RICHMOND,GILBERT RD # 007000 TO 007169,-123.14778,2.0
49.162733,RICHMOND,GILBERT RD & GRANVILLE AVE,-123.147771,4.0
49.273519,VANCOUVER,CYPRESS ST & GREER AVE,-123.147767,1.0
49.274462,VANCOUVER,CREELMAN AVE & CYPRESS ST,-123.147747,1.0
49.170171,RICHMOND,GILBERT RD & WESTMINSTER HWY,-123.147705,6.0
49.173876,RICHMOND,HOLLYBRIDGE WAY & LANSDOWNE RD & PEARSON WAY,-123.147632,1.0
49.172767,RICHMOND,ELMBRIDGE WAY # 007000 TO 007099,-123.14726,1.0
49.326857,WEST VANCOUVER,11TH ST & MARINE DR,-123.147101,4.0
49.189536,RICHMOND,BOEING AVE & DOUGLAS CRES,-123.147061,1.0
49.264657,VANCOUVER,W 8TH AVE # 001800 TO 001899,-123.14692,1.0
49.219436,VANCOUVER,W 57TH AVE & WILTSHIRE ST,-123.146803,1.0
49.213257,VANCOUVER,ARBUTUS GREENWAY & EAST BOULEVARD & W 64TH AVE,-123.146742,1.0
49.697028,SQUAMISH,CHANNEL RD & LAURELWOOD RD & PEAKSIDE PL & UNSIGNED,-123.146634,1.0
49.174639,RICHMOND,PEARSON WAY # 006900 TO 007199,-123.146596,1.0
49.690853,SQUAMISH,HWY 99 & STAWAMUS RD & VALLEY DR & TURNING LANE,-123.146448,1.0
49.27155,VANCOUVER,CHESTNUT ST & YORK AVE,-123.146401,2.0
49.328185,WEST VANCOUVER,11TH ST & KEITH RD,-123.146097,1.0
49.257179,VANCOUVER,BURRARD ST & W 16TH AVE,-123.145979,1.0
49.259051,VANCOUVER,BURRARD ST & W 14TH AVE,-123.145937,1.0
49.260941,VANCOUVER,BURRARD ST & W 12TH AVE,-123.145866,3.0
49.176034,RICHMOND,GILBERT RD & RIVER RD,-123.145758,4.0
49.263701,VANCOUVER,BURRARD ST & W BROADWAY,-123.145756,4.0
49.266304,VANCOUVER,BURRARD ST & W 6TH AVE,-123.145662,2.0
49.268005,VANCOUVER,BURRARD ST & W 4TH AVE,-123.14564,5.0
49.173838,RICHMOND,GILBERT RD & LANSDOWNE RD,-123.145567,2.0
49.269782,VANCOUVER,BURRARD ST & W 2ND AVE,-123.145561,2.0
49.272406,VANCOUVER,BURRARD ST & CORNWALL AVE,-123.145229,1.0
49.695187,SQUAMISH,CLARKE DR & HWY 99 & TURNING LANE,-123.144797,1.0
49.172051,RICHMOND,ALDERBRIDGE WAY & ELMBRIDGE WAY,-123.144793,3.0
49.170178,RICHMOND,ALDERBRIDGE WAY & WESTMINSTER HWY,-123.14462,6.0
49.266283,VANCOUVER,W 6TH AVE # 001700 TO 001799,-123.144485,1.0
49.268882,VANCOUVER,W 3RD AVE # 001700 TO 001799,-123.1444,1.0
49.273172,VANCOUVER,BURRARD ST & BURRARD ST BRIDGE,-123.144127,1.0
49.174716,RICHMOND,ALDERBRIDGE WAY # 007500 TO 007739,-123.143777,1.0
49.208571,VANCOUVER,ADERA ST & SW MARINE DR,-123.143732,1.0
49.155605,RICHMOND,BLUNDELL RD & MOFFATT RD,-123.143717,1.0
49.157868,RICHMOND,MOFFATT RD # 007360 TO 007999,-123.143691,1.0
49.162674,RICHMOND,GRANVILLE AVE & MOFFATT RD,-123.143638,1.0
49.25714,VANCOUVER,PINE ST & W 16TH AVE,-123.143598,2.0
49.258986,VANCOUVER,PINE ST & W 14TH AVE,-123.143564,1.0
49.260882,VANCOUVER,PINE ST & W 12TH AVE,-123.143475,1.0
49.326693,WEST VANCOUVER,MAIN ST & MARINE DR,-123.143456,1.0
49.261764,VANCOUVER,PINE ST & W 11TH AVE,-123.143452,1.0
49.263662,VANCOUVER,PINE ST & W BROADWAY,-123.143414,2.0
49.267984,VANCOUVER,PINE ST & W 4TH AVE,-123.14324,1.0
49.269745,VANCOUVER,PINE ST & W 2ND AVE,-123.14317,1.0
49.288597,VANCOUVER,BEACH AVE & GILFORD ST,-123.142911,1.0
49.284569,VANCOUVER,BEACH AVE & BIDWELL ST,-123.142724,1.0
49.170187,RICHMOND,BOWLING GREEN RD & WESTMINSTER HWY,-123.142722,1.0
49.29056,VANCOUVER,CHILCO ST & COMOX ST,-123.142627,1.0
49.28768,VANCOUVER,BEACH AVE & DAVIE ST,-123.142371,1.0
49.192621,RICHMOND,AIRPORT CONNECTOR BRIDGE & AIRPORT STATION & ARTHUR LAING BRIDGE & BRIDGEPORT RD & CESSNA DR & CESSNA DR OFRP & GRANT MCCONACHIE WAY & GRANT MCCONACHIE WAY OFRP & GRANT MCCONACHIE WAY ONRP & MILLER RD & RUSS BAKER WAY & RUSS BAKER WAY OFRP & RUSS BAKER W,-123.14231,1.0
49.206054,VANCOUVER,SW MARINE DR # 008700 TO 008871,-123.142298,1.0
49.28727,VANCOUVER,DAVIE ST & DENMAN ST,-123.141822,4.0
49.285216,VANCOUVER,BIDWELL ST & MAXINE LANE,-123.141763,1.0
49.311996,VANCOUVER,ELDON TRAIL & LIONS GATE BRIDGE & STANLEY PARK CAUSEWAY,-123.141757,1.0
49.24946,VANCOUVER,ALEXANDRA ST & W KING EDWARD AVE,-123.141482,1.0
49.234359,VANCOUVER,CHURCHILL ST & W 41ST AVE,-123.141428,1.0
49.270843,VANCOUVER,FIR ST & W 1ST AVE,-123.141389,1.0
49.261738,VANCOUVER,FIR ST & W 11TH AVE,-123.141104,1.0
49.263614,VANCOUVER,FIR ST & W BROADWAY,-123.141026,3.0
49.291641,VANCOUVER,CHILCO ST & TED NORTHE LANE,-123.14101,1.0
49.26538,VANCOUVER,FIR ST & W 7TH AVE,-123.140927,1.0
49.290827,VANCOUVER,NELSON ST # 001900 TO 001999,-123.140882,2.0
49.16495,RICHMOND,MINORU BLVD & MINORU GATE & MALL ACCESS,-123.14081,1.0
49.269712,VANCOUVER,FIR ST & W 2ND AVE,-123.140791,1.0
49.287956,VANCOUVER,DENMAN ST & PENDRELL ST,-123.140773,1.0
49.268738,VANCOUVER,ARBUTUS GREENWAY & FIR ST & W 3RD AVE & TURNING LANE,-123.140682,3.0
49.196553,RICHMOND,TEMPLETON STATION RD # 007899 TO 007899,-123.140635,1.0
49.207069,VANCOUVER,GRANVILLE ST & W 71ST AVE,-123.140585,3.0
49.176289,RICHMOND,ALDERBRIDGE WAY & MINORU BLVD,-123.140536,1.0
49.208534,VANCOUVER,GRANVILLE ST & W 70TH AVE,-123.140534,5.0
49.209524,VANCOUVER,GRANVILLE ST # 008400 TO 008599,-123.140498,1.0
49.205303,VANCOUVER,GRANVILLE ST & MILTON ST & SW MARINE DR,-123.140462,1.0
49.210514,VANCOUVER,GRANVILLE ST & W 68TH AVE,-123.140462,1.0
49.210886,VANCOUVER,GRANVILLE ST & W 67TH AVE,-123.140448,1.0
49.326912,WEST VANCOUVER,MARINE DR & PARK ROYAL NORTH & PARK ROYAL SOUTH,-123.140446,3.0
49.213145,VANCOUVER,GRANVILLE ST & W 64TH AVE,-123.140369,2.0
49.158334,RICHMOND,ABERCROMBIE DR & MINORU BLVD,-123.140304,1.0
49.170714,RICHMOND,MINORU BLVD # 005951 TO 005999,-123.14026,1.0
49.286241,VANCOUVER,BIDWELL ST & DAVIE ST,-123.140236,1.0
49.168714,RICHMOND,GOLLNER AVE & MINORU BLVD & MALL ACCESS,-123.140224,1.0
49.162737,RICHMOND,GRANVILLE AVE & MINORU BLVD,-123.140216,10.0
49.217369,VANCOUVER,GRANVILLE ST & PARK DR & W 59TH AVE,-123.140216,3.0
49.170201,RICHMOND,MINORU BLVD & WESTMINSTER HWY,-123.140204,4.0
49.173033,RICHMOND,MINORU BLVD # 005700 TO 005899,-123.140177,1.0
49.219331,VANCOUVER,GRANVILLE ST & W 57TH AVE,-123.140129,1.0
49.221704,VANCOUVER,GRANVILLE ST & W 54TH AVE,-123.140015,2.0
49.287456,VANCOUVER,PENDRELL ST # 001700 TO 001799,-123.139988,1.0
49.22408,VANCOUVER,GRANVILLE ST & W 52ND AVE,-123.139929,1.0
49.325809,WEST VANCOUVER,PARK ROYAL SOUTH # 001131 TO 003000,-123.139912,1.0
49.226966,VANCOUVER,GRANVILLE ST & W 49TH AVE,-123.13981,3.0
49.288672,VANCOUVER,COMOX ST & DENMAN ST,-123.139697,4.0
49.234343,VANCOUVER,GRANVILLE ST & W 41ST AVE,-123.139623,3.0
49.235364,VANCOUVER,GRANVILLE ST & W 40TH AVE,-123.139588,1.0
49.281576,VANCOUVER,BEACH AVE & BROUGHTON ST,-123.139518,2.0
49.285732,VANCOUVER,DAVIE ST # 001600 TO 001699,-123.139453,1.0
49.238013,VANCOUVER,GRANVILLE ST & W 37TH AVE,-123.139448,2.0
49.241887,VANCOUVER,GRANVILLE ST & W 33RD AVE,-123.139312,1.0
49.207049,VANCOUVER,FRENCH ST & W 71ST AVE,-123.139264,1.0
49.208596,VANCOUVER,FRENCH ST & W 70TH AVE,-123.13921,2.0
49.24368,VANCOUVER,GRANVILLE ST & W 32ND AVE,-123.139206,1.0
49.284884,VANCOUVER,CARDERO ST & PANTAGES LANE,-123.139193,1.0
49.247416,VANCOUVER,GRANVILLE ST & NANTON AVE,-123.139168,1.0
49.248332,VANCOUVER,GRANVILLE ST & W 26TH AVE,-123.139148,1.0
49.249411,VANCOUVER,GRANVILLE ST & W KING EDWARD AVE,-123.139097,1.0
49.259821,VANCOUVER,W 13TH AVE # 001500 TO 001529,-123.139086,1.0
49.257053,VANCOUVER,GRANVILLE ST & MARPOLE AVE & W 16TH AVE,-123.138793,3.0
49.258014,VANCOUVER,GRANVILLE ST & W 15TH AVE,-123.138741,1.0
49.2608,VANCOUVER,GRANVILLE ST & W 12TH AVE,-123.138697,1.0
49.285223,VANCOUVER,CARDERO ST & DAVIE ST,-123.13867,2.0
49.28938,VANCOUVER,DENMAN ST & NELSON ST,-123.138616,3.0
49.26171,VANCOUVER,GRANVILLE ST & W 11TH AVE,-123.138572,2.0
49.263589,VANCOUVER,GRANVILLE ST & W BROADWAY,-123.138562,5.0
49.262638,VANCOUVER,GRANVILLE ST & W 10TH AVE,-123.138541,2.0
49.184696,RICHMOND,CAMBIE RD & RIVER RD,-123.138499,1.0
49.265342,VANCOUVER,GRANVILLE ST & W 7TH AVE,-123.138499,1.0
49.266182,VANCOUVER,GRANVILLE ST & W 6TH AVE,-123.138468,1.0
49.266772,VANCOUVER,GRANVILLE ST & W 5TH AVE,-123.138455,1.0
49.28233,VANCOUVER,BROUGHTON ST & HARWOOD ST,-123.138434,1.0
49.280513,VANCOUVER,BEACH AVE & JERVIS ST,-123.138363,1.0
49.285584,VANCOUVER,CARDERO ST & SEE-EM-IA LANE,-123.13811,1.0
49.289751,VANCOUVER,DENMAN ST & TED NORTHE LANE,-123.138042,1.0
49.233344,VANCOUVER,CARTIER ST # 005700 TO 005899,-123.138027,1.0
49.227825,VANCOUVER,W 48TH AVE # 001400 TO 001499,-123.138013,1.0
49.234282,VANCOUVER,CARTIER ST & W 41ST AVE,-123.137993,1.0
49.26933,VANCOUVER,ANDERSON ST & LAMEYS MILL RD,-123.137797,1.0
49.216576,VANCOUVER,CARTIER ST & PARK DR,-123.137557,1.0
49.29007,VANCOUVER,BARCLAY ST & DENMAN ST,-123.137549,2.0
49.284452,VANCOUVER,DAVIE ST & NICOLA ST,-123.137481,1.0
49.177331,RICHMOND,ALDERBRIDGE WAY # 007912 TO 007998,-123.137436,1.0
49.282982,VANCOUVER,BROUGHTON ST & BURNABY ST,-123.137393,1.0
49.170173,RICHMOND,WESTMINSTER HWY # 007850 TO 007998,-123.13729,1.0
49.269956,VANCOUVER,ANDERSON ST & ISLAND PARK WALK,-123.137115,2.0
49.288355,VANCOUVER,BIDWELL ST & NELSON ST,-123.13708,1.0
49.292474,VANCOUVER,GILFORD ST & ROBSON ST,-123.137027,2.0
49.176377,RICHMOND,NO 3 RD # 005001 TO 005489,-123.13681,2.0
49.167696,RICHMOND,NO 3 RD & MALL ACCESS,-123.136745,1.0
49.173863,RICHMOND,LANSDOWNE RD & NO 3 RD,-123.136744,10.0
49.294457,VANCOUVER,STANLEY PARK CAUSEWAY & W GEORGIA ST,-123.136721,2.0
49.140885,RICHMOND,NO 3 RD & WILLIAMS RD,-123.136704,3.0
49.148285,RICHMOND,FRANCIS RD & NO 3 RD,-123.136673,2.0
49.150659,RICHMOND,BOWCOCK RD & NO 3 RD & PENNY LANE,-123.136671,1.0
49.151888,RICHMOND,LUCAS RD & NO 3 RD,-123.136668,1.0
49.182858,RICHMOND,BROWNGATE RD & NO 3 RD,-123.136665,2.0
49.179742,RICHMOND,LESLIE RD & NO 3 RD,-123.136655,2.0
49.155579,RICHMOND,BLUNDELL RD & NO 3 RD,-123.136646,1.0
49.165613,RICHMOND,NO 3 RD # 006401 TO 006799,-123.136632,2.0
49.169503,RICHMOND,NO 3 RD # 006001 TO 006159,-123.136617,1.0
49.17121,RICHMOND,FIRBRIDGE WAY & NO 3 RD,-123.136612,1.0
49.17738,RICHMOND,ALDERBRIDGE WAY & NO 3 RD,-123.136585,5.0
49.160971,RICHMOND,BENNETT RD & NO 3 RD & TURNING LANE,-123.136579,5.0
49.162725,RICHMOND,GRANVILLE AVE & NO 3 RD,-123.136579,13.0
49.164716,RICHMOND,NO 3 RD & PARK RD & MALL ACCESS,-123.136563,5.0
49.172017,RICHMOND,ACKROYD RD & NO 3 RD,-123.136554,2.0
49.166509,RICHMOND,COOK RD & NO 3 RD & MALL ACCESS,-123.136548,6.0
49.170211,RICHMOND,NO 3 RD & WESTMINSTER HWY,-123.136548,8.0
49.168832,RICHMOND,NO 3 RD & SABA RD,-123.136547,6.0
49.286612,VANCOUVER,CARDERO ST & COMOX ST,-123.136536,1.0
49.290777,VANCOUVER,DENMAN ST & HARO ST,-123.136527,3.0
49.163474,RICHMOND,ANDERSON RD & NO 3 RD,-123.136519,1.0
49.184649,RICHMOND,CAMBIE RD & NO 3 RD,-123.136506,5.0
49.285153,VANCOUVER,NICOLA ST & PENDRELL ST,-123.136379,1.0
49.326336,WEST VANCOUVER,MAIN ST # 000700 TO 000754,-123.136357,1.0
49.257963,VANCOUVER,HEMLOCK ST & MARPOLE AVE & W 15TH AVE,-123.136307,1.0
49.283711,VANCOUVER,BROUGHTON ST & DAVIE ST,-123.136303,4.0
49.259784,VANCOUVER,HEMLOCK ST & W 13TH AVE,-123.136244,1.0
49.347776,WEST VANCOUVER,EYREMOUNT DR & KNOCKMAROON RD,-123.136226,1.0
49.260754,VANCOUVER,HEMLOCK ST & W 12TH AVE,-123.136209,4.0
49.207001,VANCOUVER,MONTCALM ST & W 71ST AVE,-123.136199,2.0
49.261655,VANCOUVER,HEMLOCK ST & W 11TH AVE,-123.136174,1.0
49.267228,VANCOUVER,HEMLOCK ST & W 4TH AVE,-123.136137,1.0
49.263559,VANCOUVER,HEMLOCK ST & W BROADWAY,-123.136088,4.0
49.265302,VANCOUVER,HEMLOCK ST & W 7TH AVE,-123.136066,1.0
49.289058,VANCOUVER,BARCLAY ST & BIDWELL ST,-123.135977,1.0
49.299573,VANCOUVER,PIPELINE RD & ROSE GARDEN LANE & PARK ACCESS ROAD,-123.135867,1.0
49.280378,VANCOUVER,BUTE ST & HARWOOD ST,-123.135495,1.0
49.291479,VANCOUVER,DENMAN ST & ROBSON ST,-123.135476,6.0
49.277593,VANCOUVER,BEACH AVE & THURLOW ST,-123.135424,1.0
49.201054,VANCOUVER,HUDSON ST & W 77TH AVE,-123.135397,1.0
49.285856,VANCOUVER,COMOX ST & NICOLA ST,-123.135376,2.0
49.740801,SQUAMISH,GARIBALDI WAY & HWY 99 & TURNING LANE,-123.135232,2.0
49.179738,RICHMOND,LESLIE RD # 008000 TO 008199,-123.135231,1.0
49.16267,RICHMOND,GRANVILLE AVE # 008000 TO 008198,-123.135127,1.0
49.289762,VANCOUVER,BIDWELL ST & HARO ST,-123.134926,1.0
49.32717,WEST VANCOUVER,MARINE DR & TAYLOR WAY & TURNING LANE,-123.134922,1.0
49.28281,VANCOUVER,DAVIE ST & JERVIS ST,-123.134916,1.0
49.334457,WEST VANCOUVER,INGLEWOOD AVE & TAYLOR WAY,-123.134902,1.0
49.325801,WEST VANCOUVER,PARK ROYAL SOUTH & TAYLOR WAY,-123.134894,1.0
49.20571,VANCOUVER,HUDSON ST & W 72ND AVE,-123.134687,1.0
49.290973,VANCOUVER,ROBSON ST # 001700 TO 001799,-123.134677,1.0
49.271558,VANCOUVER,GRANVILLE BRIDGE,-123.134551,2.0
49.203121,VANCOUVER,HUDSON ST & MARPOLE LOOP & SW MARINE DR & SW MARINE DR ONRAMP & TURNING LANE,-123.134514,1.0
49.208533,VANCOUVER,HUDSON ST & W 70TH AVE,-123.134489,2.0
49.278256,VANCOUVER,PACIFIC ST & THURLOW ST,-123.134424,3.0
49.292192,VANCOUVER,ALBERNI ST & DENMAN ST,-123.134398,2.0
49.288018,VANCOUVER,BARCLAY ST & CARDERO ST,-123.13437,1.0
49.286548,VANCOUVER,NELSON ST & NICOLA ST,-123.13431,1.0
49.285092,VANCOUVER,BROUGHTON ST & COMOX ST,-123.1342,2.0
49.1738,RICHMOND,LANSDOWNE RD # 008000 TO 008398,-123.13411,2.0
49.171995,RICHMOND,ACKROYD RD # 008100 TO 008399,-123.134012,1.0
49.178361,RICHMOND,ALEXANDRA RD & HAZELBRIDGE WAY,-123.13398,2.0
49.257854,VANCOUVER,BIRCH ST & W 15TH AVE,-123.133919,1.0
49.179734,RICHMOND,HAZELBRIDGE WAY & LESLIE RD,-123.133865,1.0
